Unnamed: 0,state_code,latitude,longitude,zip_code,id,city,Unnamed: 6,name,labels,founded_at,closed_at,first_funding_at,last_funding_at,age_first_funding_year,age_last_funding_year,age_first_milestone_year,age_last_milestone_year,relationships,funding_rounds,funding_total_usd,milestones,state_code.1,is_CA,is_NY,is_MA,is_TX,is_otherstate,category_code,is_software,is_web,is_mobile,is_enterprise,is_advertising,is_gamesvideo,is_ecommerce,is_biotech,is_consulting,is_othercategory,object_id,has_VC,has_angel,has_roundA,has_roundB,has_roundC,has_roundD,avg_participants,is_top500,status
1005,CA,42.35888,-71.05682,92101,c:6669,San Diego,,Bandsintown,1,2007-01-01,,2009-04-01,2010-01-01,2.2493,3.0027,4.6685,6.7041,3,3,375000,3,CA,1,0,0,0,0,music,0,0,0,0,0,0,0,0,0,1,c:6669,0,1,0,0,0,0,1.0,0,1
204,CA,37.238916,-121.973718,95032,c:16283,Los Gatos,,TriCipher,1,2000-01-01,,2005-02-14,2009-12-28,5.126,9.9973,7.0055,7.0055,9,4,40100000,1,CA,1,0,0,0,0,enterprise,0,0,0,1,0,0,0,0,0,0,c:16283,1,0,0,1,1,1,4.75,1,1
1001,CA,32.901049,-117.192656,92121,c:65620,San Diego,San Diego CA 92121,Plixi,1,2009-03-18,,2010-03-30,2010-03-30,1.0329,1.0329,1.4575,2.2055,5,1,2600000,2,CA,1,0,0,0,0,web,0,1,0,0,0,0,0,0,0,0,c:65620,0,0,1,0,0,0,4.0,1,1
738,CA,37.320309,-122.05004,95014,c:42668,Cupertino,Cupertino CA 95014,Solidcore Systems,1,2002-01-01,,2005-02-17,2007-04-25,3.1315,5.3151,6.0027,6.0027,5,3,40000000,1,CA,1,0,0,0,0,software,1,0,0,0,0,0,0,0,0,0,c:42668,0,0,0,1,1,1,3.3333,1,1
1002,CA,37.779281,-122.419236,94105,c:65806,San Francisco,San Francisco CA 94105,Inhale Digital,0,2010-08-01,10/1/2012,2010-08-01,2012-04-01,0.0,1.6685,0.0384,0.0384,2,2,1300000,1,CA,1,0,0,0,0,games_video,0,0,0,0,0,1,0,0,0,0,c:65806,1,1,0,0,0,0,1.0,1,0
379,CA,37.406914,-122.09037,94043,c:22898,Mountain View,Mountain View CA 94043,Matisse Networks,0,2002-01-01,2/15/2009,2006-07-18,2006-07-18,4.5452,4.5452,5.0027,5.0027,3,1,7500000,1,CA,1,0,0,0,0,network_hosting,0,0,0,0,0,0,0,0,0,1,c:22898,0,0,0,1,0,0,3.0,1,0
195,CA,37.3915589,-122.0702643,94041,c:16191,Mountain View,,RingCube Technologies,1,2005-01-01,,2006-09-21,2010-03-18,1.7205,5.211,3.0,6.6082,6,3,26000000,2,CA,1,0,0,0,0,software,1,0,0,0,0,0,0,0,0,0,c:16191,1,0,1,1,0,0,1.6667,1,1
875,CA,38.057107,-122.513742,94901,c:5192,San Rafael,,ClairMail,1,2004-01-01,,2005-08-24,2010-10-04,1.6466,6.7616,5.6055,7.3616,25,3,34100000,3,CA,1,0,0,0,0,finance,0,0,0,0,0,0,0,0,0,1,c:5192,0,0,1,1,0,1,3.5,1,1
16,MA,42.712207,-73.203599,1267,c:1043,Williamstown,Williamstown MA 1267,VoodooVox,1,2002-01-01,,2005-08-02,2013-02-08,3.5863,11.1123,8.0055,9.9945,13,3,9650000,4,MA,0,0,1,0,0,mobile,0,0,1,0,0,0,0,0,0,0,c:1043,1,0,1,0,0,1,4.0,1,1
846,CA,37.427235,-122.145783,94306,c:498,Palo Alto,,Doostang,1,2005-06-01,,2007-02-01,2010-02-05,1.6712,4.6849,2.9178,6.1151,14,3,5750000,4,CA,1,0,0,0,0,web,0,1,0,0,0,0,0,0,0,0,c:498,1,1,1,0,0,0,1.0,1,1
685,CA,37.4429885,-122.1624131,94025,c:3949,Menlo Park,,Zong,1,2000-11-15,,2005-07-01,2010-04-26,4.6274,9.4493,10.1342,10.6493,22,3,27500000,3,CA,1,0,0,0,0,mobile,0,0,1,0,0,0,0,0,0,0,c:3949,0,0,1,1,0,0,1.0,1,1
835,CA,37.452992,-122.185098,94025,c:4829,Menlo Park,,Center'd,0,2006-01-01,12/2/2011,2007-02-01,2011-05-03,1.0849,5.3370000000000015,-0.6164,4.6082,8,5,10400000,2,CA,1,0,0,0,0,web,0,1,0,0,0,0,0,0,0,0,c:4829,1,1,1,0,0,0,1.75,1,0
531,KY,38.241467,-85.72451099999998,40204,c:30290,Louisville,,Resonant Vibes,0,2004-01-01,4/27/2012,2008-11-25,2008-11-25,4.9041,4.9041,,,0,1,350000,0,KY,0,0,0,0,1,web,0,1,0,0,0,0,0,0,0,0,c:30290,1,0,0,0,0,0,1.0,0,0
137,NY,40.70276,-73.98666800000002,11201,c:1491,Brooklyn,,drop.io,1,2007-11-26,,2007-12-03,2010-05-03,0.0192,2.4356,0.7945,4.3781,15,3,9950000,3,NY,0,1,0,0,0,education,0,0,0,0,0,0,0,0,0,1,c:1491,0,0,1,1,1,0,2.3333,1,1
162,CO,39.74627279999999,-104.9911572,80202,c:15645,Denver,,Stratavia,1,2001-01-01,,2005-08-31,2009-12-29,4.6658,8.9973,8.8384,8.8384,12,5,10700000,1,CO,0,0,0,0,1,software,1,0,0,0,0,0,0,0,0,0,c:15645,0,0,1,1,0,0,2.5,1,1
898,VA,38.901301,-77.265158,22182,c:54177,Vienna,Vienna VA 22182,Invicta Networks,0,1999-01-01,3/28/2010,2005-08-09,2005-08-09,6.6082,6.6082,,,0,1,200000,0,VA,0,0,0,0,1,public_relations,0,0,0,0,0,0,0,0,0,1,c:54177,1,0,0,0,0,0,1.0,0,0
235,CA,37.39628270000001,-122.105531,94022,c:16770,Los Altos,,QSecure,0,2003-01-01,9/22/2012,2005-08-02,2009-10-05,2.5863,6.7644,5.5014,5.5014,8,5,49000000,1,CA,1,0,0,0,0,security,0,0,0,0,0,0,0,0,0,1,c:16770,1,0,1,1,1,1,3.5,1,0
25,CA,37.590339,-122.341715,94010,c:107,Burlingame,,MeeVee,1,2000-07-01,,2005-02-01,2007-09-01,4.5918,7.1726,-0.4986,12.6795,7,4,25000000,3,CA,1,0,0,0,0,games_video,0,0,0,0,0,1,0,0,0,0,c:107,0,0,1,1,1,1,3.5,1,1
858,NY,40.730646,-73.986614,10004,c:50727,New York,New York NY 10004,SinglePlatform,1,2010-01-01,,2010-09-29,2011-08-01,0.7425,1.5808,1.2849,3.0027,10,3,4575000,3,NY,0,1,0,0,0,web,0,1,0,0,0,0,0,0,0,0,c:50727,0,1,1,0,0,0,5.0,1,1
454,CA,37.446411,-122.16054,94301,c:26368,Palo Alto,,Bling Nation,0,2007-01-01,9/10/2011,2009-07-02,2009-10-30,2.5014,2.8301,3.0877,3.4932,13,2,28000000,3,CA,1,0,0,0,0,enterprise,0,0,0,1,0,0,0,0,0,0,c:26368,0,0,1,1,0,0,1.0,1,0
369,TX,30.2350399,-97.80012990000002,78735,c:22291,Austin,,Metreos Corporation,1,2001-01-01,,2003-03-20,2004-10-14,2.2137,3.7863,4.0877,9.4986,8,2,4355000,3,TX,0,0,0,1,0,software,1,0,0,0,0,0,0,0,0,0,c:22291,0,1,1,0,0,0,1.5,0,1
289,WA,47.6026054,-122.2848651,98122,c:17857,Seattle,,Hidden City Games,0,2004-01-01,9/28/2011,2007-10-31,2007-10-31,3.8329,3.8329,3.7507,3.7507,3,1,15000000,1,WA,0,0,0,0,1,other,0,0,0,0,0,0,0,0,0,1,c:17857,0,0,0,1,0,0,2.0,1,0
177,CA,37.426316,-122.141082,94306,c:15888,Palo Alto,,Neopolitan Networks,0,2002-01-01,7/25/2008,2007-06-28,2007-06-28,5.4904,5.4904,0.0,0.0,1,1,3170000,1,CA,1,0,0,0,0,web,0,1,0,0,0,0,0,0,0,0,c:15888,0,0,1,0,0,0,2.0,0,0
26,CA,37.764395,-122.401024,94103,c:10751,San Francisco,,Pixelpipe,0,2008-01-01,8/2/2013,2007-01-01,2011-04-25,-1.0,3.3151,3.6959,5.662999999999999,4,2,2300000,3,CA,1,0,0,0,0,mobile,0,0,1,0,0,0,0,0,0,0,c:10751,0,1,1,0,0,0,2.0,0,0
803,CO,40.010492,-105.276843,80302,c:458,Boulder,,EventVue,0,2007-05-01,2/1/2010,2007-08-01,2007-09-01,0.2521,0.337,,,5,2,455000,0,CO,0,0,0,0,1,public_relations,0,0,0,0,0,0,0,0,0,1,c:458,0,1,1,0,0,0,4.5,1,0
797,IL,41.875555,-87.624421,60601,c:45525,Chicago,Chicago IL 60601,BridgePort Networks,1,2002-01-01,,2006-11-03,2006-11-03,4.8411,4.8411,1.0,1.0,3,1,13000000,1,IL,0,0,0,0,1,software,1,0,0,0,0,0,0,0,0,0,c:45525,0,0,0,0,1,0,4.0,1,1
572,CA,37.429676,-122.1085482,94303,c:3193,Palo Alto,,Scalent Systems,1,2003-01-01,,2007-01-22,2007-01-22,4.0603,4.0603,3.0027,3.0027,7,1,15000000,1,CA,1,0,0,0,0,public_relations,0,0,0,0,0,0,0,0,0,1,c:3193,0,0,0,0,1,0,4.0,1,1
503,CA,37.870102,-122.268136,94704,c:28456,Berkeley,Berkeley CA 94704,IQ Engines,1,2008-06-01,,2012-06-25,2012-06-25,4.0685,4.0685,3.4192,5.2301,2,1,3800000,3,CA,1,0,0,0,0,photo_video,0,0,0,0,0,0,0,0,0,1,c:28456,0,0,0,1,0,0,2.0,1,1
642,TX,30.2653441,-97.7435857,78701,c:36920,Austin,,"RetailMeNot, Inc.",1,2007-05-01,,2009-11-01,2011-11-10,2.5068,4.5315,4.9315,5.6767,37,5,299500000,2,TX,0,0,0,1,0,web,0,1,0,0,0,0,0,0,0,0,c:36920,1,0,1,0,1,0,1.75,1,1
625,CA,33.708708,-117.852069,92705,c:35712,Santa Ana,Santa Ana CA 92705,Mophie,1,2005-05-24,,2006-08-01,2006-08-01,1.189,1.189,2.189,7.7753,5,1,1000000,3,CA,1,0,0,0,0,hardware,0,0,0,0,0,0,0,0,0,1,c:35712,1,0,0,0,0,0,2.0,1,1
355,CA,37.422859,-122.045217,94035,c:21492,Moffett Field,Moffett Field CA 94035,Airship Ventures,0,2007-01-01,11/14/2012,2008-05-09,2009-03-01,1.3534,2.1644,4.5178,4.5178,3,2,10500000,1,CA,1,0,0,0,0,other,0,0,0,0,0,0,0,0,0,1,c:21492,0,0,1,1,0,0,2.0,1,0
510,WA,47.603832,-122.330062,98119,c:28768,Seattle,Seattle WA 98119,Lockdown Networks,1,2001-01-01,,2005-02-25,2006-03-02,4.1534,5.1671,3.0,3.0,6,2,8600000,1,WA,0,0,0,0,1,public_relations,0,0,0,0,0,0,0,0,0,1,c:28768,1,0,0,1,0,0,1.5,1,1
485,NC,36.002893,-78.904075,27701,c:27741,Durham,,eMinor,0,2006-10-01,2/17/2012,2006-08-01,2008-10-07,-0.1671,2.0192,,,9,2,5000000,0,NC,0,0,0,0,1,software,1,0,0,0,0,0,0,0,0,0,c:27741,0,0,1,1,0,0,2.5,1,0
145,CA,37.779281,-122.419236,94105,c:150658,San Francisco,San Francisco CA 94105,Karma,1,2011-01-01,,2011-01-01,2011-11-14,0.0,0.8685,0.4137,2.1671,3,2,2304999,2,CA,1,0,0,0,0,mobile,0,0,1,0,0,0,0,0,0,0,c:150658,1,0,0,0,0,0,5.0,1,1
605,PA,40.441694,-79.990086,15219,c:34338,Pittsburgh,Pittsburgh PA 15219,Zipano,0,2009-06-01,5/27/2012,2009-07-01,2009-07-01,0.0822,0.0822,,,2,1,25000,0,PA,0,0,0,0,1,security,0,0,0,0,0,0,0,0,0,1,c:34338,0,1,0,0,0,0,1.0,0,0
785,NY,40.73901,-73.997259,10011,c:45111,New York,New York NY 10011,Entertainment Media Works,0,2004-07-01,10/1/2008,2007-02-26,2007-02-26,2.6575,2.6575,0.0,0.0,1,1,4000000,1,NY,0,1,0,0,0,software,1,0,0,0,0,0,0,0,0,0,c:45111,0,0,0,1,0,0,1.0,1,0
562,CA,37.791137,-122.391843,94111,c:3178,San Francisco,,Elastra,0,2007-01-01,1/28/2011,2007-08-15,2008-08-05,0.6192,1.5945,1.0,4.3315,8,2,14600000,3,CA,1,0,0,0,0,software,1,0,0,0,0,0,0,0,0,0,c:3178,0,0,1,1,0,0,2.0,1,0
619,CA,37.404788,-121.940842,95134,c:35402,San Jose,San Jose CA 95134,RPO,0,2005-01-01,6/1/2013,2006-01-24,2010-09-13,1.063,5.7014,,,0,3,44000000,0,CA,1,0,0,0,0,hardware,0,0,0,0,0,0,0,0,0,1,c:35402,0,0,0,1,1,0,4.5,1,0
378,CA,37.7795014,-122.3948712,94107,c:22856,San Francisco,,Fotomoto,1,2008-10-01,,2008-12-01,2011-05-26,0.1671,2.6493,0.6082,4.7507,10,3,1822922,3,CA,1,0,0,0,0,ecommerce,0,0,0,0,0,0,1,0,0,0,c:22856,0,1,1,0,0,0,2.3333,1,1
63,NY,40.755446,-73.980246,10010,c:1224,New York,,Peer39,1,2006-03-01,,2006-03-01,2012-01-24,0.0,5.9041,3.8411,7.1370000000000005,18,7,29915001,5,NY,0,1,0,0,0,advertising,0,0,0,0,1,0,0,0,0,0,c:1224,1,1,1,1,1,0,2.75,1,1
65,GA,33.756806,-84.392198,30303,c:1234,Atlanta,,Vitrue,1,2006-05-01,,2006-05-01,2011-02-17,0.0,4.8027,3.7205,7.6164,26,4,33000000,5,GA,0,0,0,0,1,enterprise,0,0,0,1,0,0,0,0,0,0,c:1234,0,0,1,1,1,0,3.0,1,1
139,NH,42.99564,-71.454789,3101,c:149809,Manchester,Manchester NH 3101,Trendslide,1,2011-08-01,,2011-08-01,2012-03-01,0.0,0.5836,0.5836,0.5945,9,2,125000,2,NH,0,0,0,0,1,mobile,0,0,1,0,0,0,0,0,0,0,c:149809,0,1,0,0,0,0,1.0,0,1
98,CA,40.01573320000001,-105.275027,94025,c:13733,Menlo Park,,PublicEarth,0,2008-01-01,2/15/2011,2008-02-08,2010-05-21,0.1041,2.3863,2.3315,2.7918,7,2,4000000,2,CA,1,0,0,0,0,travel,0,0,0,0,0,0,0,0,0,1,c:13733,1,0,1,0,0,0,1.0,1,0
681,WA,47.63609,-122.327028,98102,c:39106,Seattle,,Azaleos,1,2004-05-11,,2007-11-06,2007-11-06,3.4904,3.4904,5.6603,8.3425,10,1,10000000,3,WA,0,0,0,0,1,enterprise,0,0,0,1,0,0,0,0,0,0,c:39106,0,0,0,0,1,0,2.0,1,1
884,CA,37.4049731,-122.0323525,94089,c:5306,Sunnyvale,,Efficient Frontier,1,2002-01-01,,2006-08-31,2006-08-31,4.6658,4.6658,8.7425,10.2247,25,1,6000000,4,CA,1,0,0,0,0,advertising,0,0,0,0,1,0,0,0,0,0,c:5306,0,0,0,0,1,0,3.0,1,1
207,CA,37.36883,-122.03635,94085,c:16303,Sunnyvale,Sunnyvale CA 94085,NetDevices,1,2003-01-01,,2005-08-16,2005-08-16,2.6247,2.6247,,,4,1,25000000,0,CA,1,0,0,0,0,software,1,0,0,0,0,0,0,0,0,0,c:16303,0,0,0,1,0,0,5.0,1,1
747,NY,40.730646,-73.986614,100011,c:43188,New York,New York NY 100011,Go Try It On,1,2009-12-01,,2010-11-04,2012-11-13,0.926,2.9534,0.8329,2.7425,2,3,3750000,3,NY,0,1,0,0,0,fashion,0,0,0,0,0,0,0,0,0,1,c:43188,0,1,1,0,0,0,2.0,1,1
593,MA,42.3751,-71.105616,2139,c:33507,Cambridge,Cambridge MA 2139,Performable,1,2009-10-17,,2010-01-15,2010-01-15,0.2466,0.2466,1.1178,1.663,9,1,3000000,2,MA,0,0,1,0,0,software,1,0,0,0,0,0,0,0,0,0,c:33507,0,0,1,0,0,0,1.0,1,1
1010,CA,37.779281,-122.419236,94607,c:68157,San Francisco,San Francisco CA 94607,Appstores.com,1,2010-05-24,,2010-08-01,2011-08-01,0.189,1.189,1.3562,1.6575,6,2,1155000,2,CA,1,0,0,0,0,software,1,0,0,0,0,0,0,0,0,0,c:68157,0,1,0,0,0,0,9.5,1,1
403,CA,37.560781,-122.284114,94404,c:2395,San Mateo,,Fortify Software,1,2002-10-01,,2005-12-15,2005-12-15,3.2082,3.2082,5.2548,7.8822,11,1,10000000,2,CA,1,0,0,0,0,software,1,0,0,0,0,0,0,0,0,0,c:2395,0,0,0,0,0,1,2.0,1,1
666,CA,37.658313,-122.391032,94080,c:38220,South San Francisco,South San Francisco CA 94080,iCurrent,1,2006-01-01,,2008-08-01,2008-08-01,2.5836,2.5836,2.0,2.0,5,1,3000000,1,CA,1,0,0,0,0,web,0,1,0,0,0,0,0,0,0,0,c:38220,0,0,1,0,0,0,1.0,1,1
847,MA,42.360253,-71.058291,2210,c:49815,Boston,Boston MA 2210,AisleBuyer,1,2009-01-01,,2010-11-23,2011-06-13,1.8932,2.4466,2.0,3.2767,4,2,11500000,3,MA,0,0,1,0,0,mobile,0,0,1,0,0,0,0,0,0,0,c:49815,0,0,0,0,0,0,1.0,1,1
421,TX,30.321464,-97.75501,78731,c:249,Austin,Austin TX 78731,Indeed,1,2004-11-01,,2005-08-01,2005-08-01,0.7479,0.7479,4.0493,8.3233,12,1,5000000,5,TX,0,0,0,1,0,web,0,1,0,0,0,0,0,0,0,0,c:249,0,0,1,0,0,0,3.0,1,1
364,MA,42.37564,-71.2358,2451,c:22027,Waltham,Waltham MA 2451,Colubris Networks,1,2000-01-01,,2005-03-08,2006-10-23,5.1863,6.8137,7.3342,7.3342,9,2,29000000,1,MA,0,0,1,0,0,public_relations,0,0,0,0,0,0,0,0,0,1,c:22027,1,0,0,0,0,1,5.0,1,1
31,CA,37.7870842,-122.4038047,94103,c:109,San Francisco,,Mashery,1,2006-05-01,,2007-01-01,2012-07-23,0.6712,6.2329,4.0493,7.5973,37,6,34700000,4,CA,1,0,0,0,0,enterprise,0,0,0,1,0,0,0,0,0,0,c:109,1,1,1,1,1,1,5.0,1,1
768,CA,37.441537,-122.158332,94301,c:43948,Palo Alto,Palo Alto CA 94301,Transparency Software,0,2004-01-01,1/1/2009,2005-03-09,2007-07-01,1.1863,3.4986,,,0,2,12050000,0,CA,1,0,0,0,0,software,1,0,0,0,0,0,0,0,0,0,c:43948,1,0,1,0,0,0,2.0,1,0
1059,CA,37.445586,-122.161929,95128,c:765,Palo Alto,Palo Alto CA 95128,Viewdle,1,2006-01-01,,2008-03-01,2010-10-05,2.1644,4.7616,4.0027,6.7534,13,3,12000000,2,CA,1,0,0,0,0,analytics,0,0,0,0,0,0,0,0,0,1,c:765,1,0,1,1,0,0,2.0,1,1
320,CA,33.5842816,-117.7306817,92656,c:19257,Aliso Viejo,,Enclarity,1,2005-02-01,,2009-03-10,2009-03-10,4.1041,4.1041,1.9151,1.9151,18,1,5500000,1,CA,1,0,0,0,0,consulting,0,0,0,0,0,0,0,0,1,0,c:19257,0,0,0,0,1,0,2.0,1,1
445,CA,37.402773,-122.052551,94089,c:25827,Sunnyvale,,Virsto Software,1,2007-07-01,,2009-06-26,2011-08-25,1.989,4.1534,2.8986,5.2575,10,3,24000000,4,CA,1,0,0,0,0,software,1,0,0,0,0,0,0,0,0,0,c:25827,0,0,1,1,0,0,3.3333,1,1
950,MO,39.103151,-94.581908,64106,c:5932,Kansas City,,Handmark,1,2000-07-01,,2005-09-12,2006-09-07,5.2027,6.189,7.5068,12.8932,6,2,10000000,2,MO,0,0,0,0,1,mobile,0,0,1,0,0,0,0,0,0,0,c:5932,0,0,1,1,0,0,4.5,1,1
617,MA,42.546483,-71.17366700000002,1887,c:35157,Wilmington,Wilmington MA 1887,Viacor,0,1999-12-01,11/11/2011,2002-09-12,2010-11-10,2.7836,10.9507,-1.9151,-1.9151,10,3,19009671,1,MA,0,0,1,0,0,biotech,0,0,0,0,0,0,0,1,0,0,c:35157,0,0,0,1,0,0,2.0,1,0
1112,CA,37.805289,-122.404448,94111,c:8596,San Francisco,,Carbonetworks,0,2005-01-01,7/28/2011,2008-07-01,2008-07-01,3.4986,3.4986,3.0,3.0,6,1,5000000,1,CA,1,0,0,0,0,cleantech,0,0,0,0,0,0,0,0,0,1,c:8596,0,0,1,0,0,0,1.0,1,0
332,WA,47.675489,-122.191667,98033-6314,c:19861,Kirkland,Kirkland WA 98033-6314,SchemaLogic,1,2001-01-01,,2005-01-17,2010-04-20,4.0466,9.3041,6.0027,6.0027,2,5,18914576,1,WA,0,0,0,0,1,enterprise,0,0,0,1,0,0,0,0,0,0,c:19861,1,0,0,0,1,0,3.0,1,1
787,FL,27.951849,-82.456397,33609,c:45114,Tampa,Tampa FL 33609,Skyway Software,0,2001-01-01,10/1/2012,2007-05-16,2007-05-16,6.3726,6.3726,,,0,1,4000000,0,FL,0,0,0,0,1,software,1,0,0,0,0,0,0,0,0,0,c:45114,1,0,0,0,0,0,3.0,0,0
396,MA,42.360253,-71.058291,02111-1720,c:23533,Boston,Boston MA 02111-1720,CardStar,1,2008-12-01,,2010-03-30,2011-09-13,1.3259999999999998,2.7836,1.6740000000000002,3.1342,5,3,2030882,2,MA,0,0,1,0,0,software,1,0,0,0,0,0,0,0,0,0,c:23533,0,0,1,0,0,0,3.0,1,1
431,CA,37.7831775,-122.3086191,94501,c:25325,Alameda,,Makani Power,1,2006-01-01,,2008-08-23,2008-08-23,2.6438,2.6438,0.0,7.3918,4,1,5000000,2,CA,1,0,0,0,0,cleantech,0,0,0,0,0,0,0,0,0,1,c:25325,0,0,0,1,0,0,1.0,1,1
1101,WA,47.765758,-122.184304,98011,c:8351,Bothell,,Myrio,0,1999-12-01,1/1/2012,2001-01-01,2001-01-01,1.0877,1.0877,,,5,1,20500000,0,WA,0,0,0,0,1,software,1,0,0,0,0,0,0,0,0,0,c:8351,1,0,0,0,0,0,4.0,1,0
13,CO,40.730646,-73.986614,80302,c:10392,Boulder,,Intela,1,2006-02-02,,2010-01-18,2012-08-09,3.9616,6.5205,4.5781,7.6877,4,2,13250000,4,CO,0,0,0,0,1,advertising,0,0,0,0,1,0,0,0,0,0,c:10392,1,0,0,0,0,0,2.0,0,1
452,CA,37.54763,-122.307887,94403-1855,c:26128,San Mateo,,Sana Security,1,2000-01-01,,2007-04-02,2007-04-02,7.2548,7.2548,7.0055,7.0055,7,1,12000000,1,CA,1,0,0,0,0,security,0,0,0,0,0,0,0,0,0,1,c:26128,0,0,0,0,0,0,2.0,1,1
492,CA,37.790485,-122.40094,94104,c:2808,San Francisco,,Sportgenic,1,2005-09-01,,2007-01-01,2008-09-09,1.3342,3.0247,3.0219,3.337,9,3,11489687,2,CA,1,0,0,0,0,advertising,0,0,0,0,1,0,0,0,0,0,c:2808,0,1,1,1,0,0,3.3333,1,1
20,CA,37.7870923,-122.3999719,94105,c:10581,San Francisco,,Lolapps,1,2008-01-01,,2008-09-05,2008-09-05,0.6795,0.6795,2.9178,4.2274,15,1,4000000,3,CA,1,0,0,0,0,web,0,1,0,0,0,0,0,0,0,0,c:10581,0,0,1,0,0,0,3.0,1,1
315,CA,37.3492097,-122.0326019,94087,c:190214,Sunnyvale,,Behavio,1,2012-06-12,,2012-06-01,2012-06-01,-0.0301,-0.0301,0.1369999999999999,0.1369999999999999,3,1,355000,1,CA,1,0,0,0,0,software,1,0,0,0,0,0,0,0,0,0,c:190214,0,1,0,0,0,0,1.0,0,1
231,FL,28.098905,-82.400087,33626,c:1674,Tampa,,Infinity Box,1,2006-01-01,,2006-01-01,2006-04-01,0.0,0.2466,2.4164,5.3151,10,2,118000,3,FL,0,0,0,0,1,web,0,1,0,0,0,0,0,0,0,0,c:1674,0,1,0,0,0,0,1.5,1,1
245,CA,37.779026,-122.40184,94103,c:170,San Francisco,,adBrite,1,2003-01-01,2/1/2001,2004-09-01,2012-05-01,1.6685,9.337,7.3808,10.474,17,4,40400000,3,CA,1,0,0,0,0,advertising,0,0,0,0,1,0,0,0,0,0,c:170,0,0,1,1,1,1,1.6667,1,1
484,TX,32.9583632,-96.8215658,75001,c:27740,Dallas,,Texert,0,2007-01-01,7/14/2008,2008-10-21,2008-10-21,1.8055,1.8055,,,1,1,3000000,0,TX,0,0,0,1,0,software,1,0,0,0,0,0,0,0,0,0,c:27740,0,0,1,0,0,0,1.0,1,0
810,CA,37.54827,-121.988572,94538,c:46186,Fremont,Fremont CA 94538,Mendocino Software,0,2003-01-01,2/7/2008,2005-09-12,2007-01-01,2.6986,4.0027,1.0,1.0,2,2,19700000,1,CA,1,0,0,0,0,software,1,0,0,0,0,0,0,0,0,0,c:46186,1,0,0,1,0,0,4.0,1,0
744,CA,37.354469,-121.990433,95051,c:43162,Santa Clara,Santa Clara CA 95051,QuikCycle,0,1998-01-01,1/1/2011,2007-03-01,2007-03-12,9.1671,9.1973,,,0,2,17800000,0,CA,1,0,0,0,0,software,1,0,0,0,0,0,0,0,0,0,c:43162,1,0,0,0,0,0,1.0,1,0
748,CA,37.779281,-122.419236,94107,c:43233,San Francisco,San Francisco CA 94107,Instagram,1,2010-03-01,,2010-03-05,2012-04-05,0.011,2.0986,3.0904,3.7836,12,3,57500000,3,CA,1,0,0,0,0,photo_video,0,0,0,0,0,0,0,0,0,1,c:43233,0,1,1,1,0,0,4.0,1,1
138,NY,40.606061,-73.822331,10004,c:1498,New York,,Motionbox,1,2006-01-01,,2006-09-01,2009-01-14,0.6658,3.0384,2.0,5.0548,10,3,17200000,5,NY,0,1,0,0,0,games_video,0,0,0,0,0,1,0,0,0,0,c:1498,0,0,1,1,1,0,2.6667,1,1
555,MA,42.3751,-71.105616,2138,c:31514,Cambridge,Cambridge MA 2138,AccelGolf,0,2008-08-01,5/1/2013,2008-01-01,2009-12-04,-0.5836,1.3425,0.0,1.5479,4,7,457282,2,MA,0,0,1,0,0,mobile,0,0,1,0,0,0,0,0,0,0,c:31514,1,1,0,0,0,0,1.0,1,0
943,CA,37.779281,-122.419236,94105,c:58944,San Francisco,San Francisco CA 94105,MoPub,1,2010-09-09,,2010-09-01,2012-09-20,-0.0219,2.0329,2.3151,3.1644,11,4,18500000,3,CA,1,0,0,0,0,mobile,0,0,1,0,0,0,0,0,0,0,c:58944,0,1,1,1,0,0,2.25,1,1
703,NJ,40.349274,-74.659296,8540,c:40197,Princeton,Princeton NJ 8540,DNP Green Technology,0,2008-01-01,8/24/2012,2010-01-17,2010-01-17,2.0466,2.0466,,,2,1,12000000,0,NJ,0,0,0,0,1,cleantech,0,0,0,0,0,0,0,0,0,1,c:40197,0,0,1,0,0,0,6.0,1,0
863,CO,40.397761,-105.07498,80538,c:51023,Loveland,Loveland CO 80538,Abound Solar,0,2007-01-01,11/1/2012,2010-07-06,2010-12-15,3.5123,3.9562,3.9534,4.8356,5,2,510000000,3,CO,0,0,0,0,1,cleantech,0,0,0,0,0,0,0,0,0,1,c:51023,1,0,0,0,0,0,2.5,1,0
85,CA,37.420428,-122.090769,94043,c:13168,Mountain View,,Trovix,1,2002-01-01,,2005-12-07,2006-09-06,3.9342,4.6822,4.0027,4.0027,3,2,18250000,1,CA,1,0,0,0,0,search,0,0,0,0,0,0,0,0,0,1,c:13168,0,0,1,1,0,0,2.5,1,1
995,NY,40.725435,-73.997395,10012,c:649,New York,,Thumbplay,1,2004-09-01,,2006-10-30,2010-04-21,2.1616,5.6384,3.8329,7.6932,13,4,41500019,5,NY,0,1,0,0,0,music,0,0,0,0,0,0,0,0,0,1,c:649,0,0,0,0,1,0,4.0,1,1
883,WV,39.388156,-77.885552,25430,c:52694,Kearneysville,Kearneysville WV 25430,Plethora Technology,0,2000-01-01,5/23/2009,2005-06-09,2005-06-09,5.4411,5.4411,,,1,1,1000000,0,WV,0,0,0,0,1,software,1,0,0,0,0,0,0,0,0,0,c:52694,0,0,1,0,0,0,3.0,0,0
541,CA,34.043948,-118.468204,90025,c:3080,Los Angeles,,DailyStrength,1,2006-04-01,,2007-05-18,2007-05-18,1.1288,1.1288,1.0,2.6767,7,1,5000000,2,CA,1,0,0,0,0,web,0,1,0,0,0,0,0,0,0,0,c:3080,0,0,1,0,0,0,1.0,1,1
501,MI,42.350749,-83.44458900000002,48187,c:28424,Canton,,Danotek Motion Technologies,0,2001-01-01,5/1/2013,2008-11-19,2011-08-30,7.8877,10.6658,0.4137,0.4137,2,3,42700000,1,MI,0,0,0,0,1,cleantech,0,0,0,0,0,0,0,0,0,1,c:28424,1,0,0,1,0,0,3.6667,1,0
491,CA,37.388869,-122.072353,94041,c:280611,Mountain View,Mountain View CA 94041,Yub,0,2013-01-01,1/1/2005,2013-11-19,2013-11-19,0.8822,0.8822,,,7,1,12000000,0,CA,1,0,0,0,0,ecommerce,0,0,0,0,0,0,1,0,0,0,c:280611,1,0,0,0,0,0,9.0,1,0
537,WA,47.614018,-122.19655,98004,c:30537,Bellevue,,SNAPin Software,1,2003-01-01,,2005-07-11,2006-02-07,2.526,3.1041,3.0027,9.126,5,2,22300000,2,WA,0,0,0,0,1,software,1,0,0,0,0,0,0,0,0,0,c:30537,0,0,0,1,1,0,4.5,1,1
125,CA,37.406217,-121.976473,95054,c:14656,Santa Clara,,Azuro,1,2002-01-01,,2006-01-01,2009-11-13,4.0027,7.8712,0.1616,0.1616,5,2,10000000,1,CA,1,0,0,0,0,semiconductor,0,0,0,0,0,0,0,0,0,1,c:14656,1,0,0,1,0,0,4.0,1,1
279,DC,37.09024,-95.712891,20007,c:1766,Washington,,ARPU,0,2005-05-01,5/4/2010,2006-07-01,2009-12-29,1.1671,4.6658,,,1,3,15564591,0,DC,0,0,0,0,1,advertising,0,0,0,0,1,0,0,0,0,0,c:1766,1,0,0,1,1,0,3.5,1,0
242,CA,37.779281,-122.419236,94105,c:16938,San Francisco,San Francisco CA 94105,BookFresh,1,2007-01-01,,2009-07-28,2009-07-28,2.5726,2.5726,2.4795,4.6685,7,1,500000,2,CA,1,0,0,0,0,web,0,1,0,0,0,0,0,0,0,0,c:16938,0,1,0,0,0,0,5.0,1,1
1097,CA,37.779281,-122.419236,94110,c:83265,San Francisco,San Francisco CA 94110,Singly,1,2010-12-21,,2011-02-01,2012-04-23,0.1151,1.3397,1.8329,2.6712,24,2,8950000,2,CA,1,0,0,0,0,analytics,0,0,0,0,0,0,0,0,0,1,c:83265,0,0,1,0,0,0,7.0,1,1
387,NY,40.753881,-73.978852,10173,c:23136,New York,,TxVia,1,2006-01-01,,2007-10-01,2010-10-26,1.7479,4.8192,4.0027,4.8192,8,4,55350000,2,NY,0,1,0,0,0,finance,0,0,0,0,0,0,0,0,0,1,c:23136,0,0,1,1,1,1,4.0,1,1
895,CA,37.406914,-122.09037,94043,c:54066,Mountain View,Mountain View CA 94043,Blue Vector Systems,0,2002-01-01,8/31/2010,2005-09-21,2005-09-21,3.7233,3.7233,,,1,1,4000000,0,CA,1,0,0,0,0,public_relations,0,0,0,0,0,0,0,0,0,1,c:54066,0,0,0,1,0,0,3.0,1,0
251,IL,41.878984,-87.637,60606,c:17219,Chicago,,Open Kernel Labs,1,2006-01-01,,2007-09-13,2012-07-06,1.6986,6.5151,3.2849,4.9315,3,5,10764323,3,IL,0,0,0,0,1,software,1,0,0,0,0,0,0,0,0,0,c:17219,1,0,1,0,0,0,2.0,1,1
390,NJ,40.535316,-74.521435,8873,c:23234,Somerset,,Elanti Systems,0,2007-01-01,2/11/2012,2008-05-29,2008-05-29,1.4082,1.4082,0.0,0.0,1,1,5500000,1,NJ,0,0,0,0,1,software,1,0,0,0,0,0,0,0,0,0,c:23234,1,0,0,0,0,0,3.0,1,0
1023,CA,37.779281,-122.419236,94105,c:70586,San Francisco,San Francisco CA 94105,Astrid,1,2008-01-01,,2012-04-13,2012-04-13,4.2849,4.2849,2.4164,5.5151,7,1,400000,2,CA,1,0,0,0,0,social,0,0,0,0,0,0,0,0,0,1,c:70586,0,1,0,0,0,0,3.0,1,1
459,CA,37.863464,-122.3153453,94710,c:26612,Berkeley,,Nordic Windpower,0,2007-01-01,4/10/2013,2007-10-02,2010-01-05,0.7507,3.0137,,,3,3,54000000,0,CA,1,0,0,0,0,cleantech,0,0,0,0,0,0,0,0,0,1,c:26612,1,0,0,0,1,0,2.6667,1,0
930,GA,34.070958000000005,-84.274733,30009,c:57923,Alpharetta,Alpharetta GA 30009,Visiprise,0,1985-01-01,5/3/2009,2005-10-17,2005-10-17,20.8055,20.8055,,,2,1,32000000,0,GA,0,0,0,0,1,software,1,0,0,0,0,0,0,0,0,0,c:57923,0,0,0,1,0,0,7.0,1,0
934,WA,39.78373,-100.445882,98104,c:58133,Seattle,Seattle WA 98104,Hubspan,1,2000-01-01,,2005-10-14,2005-10-14,5.789,5.789,,,1,1,13000000,0,WA,0,0,0,0,1,software,1,0,0,0,0,0,0,0,0,0,c:58133,0,0,0,0,0,1,4.0,1,1
917,WA,47.614422,-122.192337,98004,c:5587,Bellevue,Bellevue WA 98004,iConclude,1,2005-01-01,,2005-02-01,2006-04-10,0.0849,1.2712,,,5,3,12500000,0,WA,0,0,0,0,1,software,1,0,0,0,0,0,0,0,0,0,c:5587,1,0,1,1,0,0,2.3333,1,1
670,CA,37.314002,-121.932365,95128,c:38338,San Jose,San Jose CA 95128,41st Parameter,1,2004-01-01,,2006-05-08,2012-04-11,2.3507,8.2822,1.0027,8.2849,16,4,38064570,2,CA,1,0,0,0,0,security,0,0,0,0,0,0,0,0,0,1,c:38338,1,0,0,1,1,1,3.0,1,1
811,CA,37.748676,-122.415813,94110,c:4622,San Francisco,,Aardvark,1,2007-07-01,9/1/2011,2007-01-01,2008-10-01,-0.4959,1.2548,2.1726,4.6,21,2,6000000,2,CA,1,0,0,0,0,web,0,1,0,0,0,0,0,0,0,0,c:4622,0,1,1,0,0,0,4.0,1,1
339,VA,38.030823,-78.48158000000002,22902,c:202,Charlottesville,,Hotelicopter,0,2006-06-01,8/1/2012,2008-11-17,2011-03-31,2.4658,4.8329,0.5863,5.6164,4,2,5000000,6,VA,0,0,0,0,1,web,0,1,0,0,0,0,0,0,0,0,c:202,0,0,1,1,0,0,1.0,0,0
163,VA,39.035298,-77.430125,20166,c:15652,Dulles,,Anystream,1,2000-01-01,,2000-01-01,2007-02-07,0.0,7.1068,6.0055,10.9041,9,3,59000000,3,VA,0,0,0,0,1,software,1,0,0,0,0,0,0,0,0,0,c:15652,1,0,0,0,1,0,2.0,1,1
121,IL,39.78373,-100.445882,60607,c:144825,Chicago,Chicago IL 60607,CakeStyle,0,2011-08-01,8/1/2013,2012-08-13,2012-08-13,1.0356,1.0356,0.0,1.0356,2,1,1000000,2,IL,0,0,0,0,1,web,0,1,0,0,0,0,0,0,0,0,c:144825,0,1,0,0,0,0,1.0,0,0
1149,CA,37.758062,-122.418642,94110,c:9772,San Francisco,,Fluther,1,2007-01-01,,2009-09-21,2009-09-21,2.7233,2.7233,0.9151,6.3096,5,1,600000,3,CA,1,0,0,0,0,web,0,1,0,0,0,0,0,0,0,0,c:9772,0,1,0,0,0,0,7.0,1,1
316,CT,41.85361500000001,-72.70375,6002,c:19101,Bloomfield,,Pocket Communications Northeast,0,2006-01-01,1/1/2012,2008-11-01,2009-02-20,2.8356,3.1397,3.3781,3.7753,0,2,125000000,2,CT,0,0,0,0,1,mobile,0,0,1,0,0,0,0,0,0,0,c:19101,0,0,1,1,0,0,2.0,1,0
187,CA,34.01052,-118.495981,60401,c:1612,Santa Monica,,Goodreads,1,2007-01-15,,2007-11-01,2009-12-09,0.7945,2.9014,3.0493,6.5233,11,2,2750000,3,CA,1,0,0,0,0,web,0,1,0,0,0,0,0,0,0,0,c:1612,0,1,1,0,0,0,4.0,1,1
274,CA,37.3821368,-121.970505,95054,c:17620,Santa Clara,,Woven Systems,1,2003-01-01,,2005-12-01,2007-09-25,2.9178,4.7342,,,1,2,30000000,0,CA,1,0,0,0,0,network_hosting,0,0,0,0,0,0,0,0,0,1,c:17620,0,0,1,1,0,0,2.5,1,1
763,CA,37.433646,-121.886704,95035-6261,c:43873,Milpitas,Milpitas CA 95035-6261,Kolorific,0,2003-01-01,7/7/2012,2007-01-05,2007-01-05,4.0137,4.0137,,,0,1,7000000,0,CA,1,0,0,0,0,semiconductor,0,0,0,0,0,0,0,0,0,1,c:43873,0,0,0,0,1,0,1.0,0,0
695,CA,37.45604,-122.165399,94025,c:3986,Menlo Park,,Krugle,1,2006-01-01,,2006-05-31,2006-05-31,0.411,0.411,0.0,2.5342,10,1,6100000,2,CA,1,0,0,0,0,search,0,0,0,0,0,0,0,0,0,1,c:3986,0,0,0,1,0,0,4.0,1,1
973,CA,32.721834,-117.161797,92101,c:61592,San Diego,San Diego CA 92101,Flud,0,2010-10-01,8/8/2013,2011-04-13,2012-09-01,0.5315,1.9205,2.2548,2.9781,12,3,2100000,2,CA,1,0,0,0,0,enterprise,0,0,0,1,0,0,0,0,0,0,c:61592,1,1,0,0,0,0,4.0,1,0
618,CA,37.779281,-122.419236,94103,c:35236,San Francisco,San Francisco CA 94103,Chomp,1,2009-09-09,,2009-11-01,2010-03-11,0.1452,0.5014,0.4959,3.011,10,2,2565000,3,CA,1,0,0,0,0,mobile,0,0,1,0,0,0,0,0,0,0,c:35236,0,1,1,0,0,0,3.5,1,1
574,CA,37.584103000000006,-122.366082,94010,c:31968,Burlingame,Burlingame CA 94010,Origen Therapeutics,0,1997-01-01,8/3/2012,2007-10-03,2007-10-03,10.7589,10.7589,,,0,1,2000000,0,CA,1,0,0,0,0,biotech,0,0,0,0,0,0,0,1,0,0,c:31968,0,0,0,0,0,0,1.0,0,0
483,NC,35.76524000000001,-78.731161,27606,c:27620,Raleigh,,Inlet Technologies,1,2003-01-01,,2005-07-26,2008-09-08,2.5671,5.6904,2.0027,2.0027,3,3,22400000,1,NC,0,0,0,0,1,network_hosting,0,0,0,0,0,0,0,0,0,1,c:27620,1,0,0,1,1,0,3.6667,1,1
1151,NY,40.740441,-73.993376,10011,c:9816,New York,,ShopWiki,1,2005-06-01,,2006-07-01,2006-07-01,1.0822,1.0822,6.0027,6.0027,12,1,6250000,1,NY,0,1,0,0,0,ecommerce,0,0,0,0,0,0,1,0,0,0,c:9816,0,0,1,0,0,0,1.0,0,1
881,NY,40.750519,-73.993494,10001,c:52566,New York,New York NY 10001,Fondu,1,2010-02-01,,2011-11-01,2011-11-01,1.7479,1.7479,1.0,2.1096,4,1,575000,2,NY,0,1,0,0,0,web,0,1,0,0,0,0,0,0,0,0,c:52566,0,1,0,0,0,0,6.0,0,1
841,MA,42.387597,-71.099497,2143,c:49236,Somerville,Somerville MA 2143,Loudcaster,0,2009-08-01,1/1/2012,2009-08-01,2010-03-01,0.0,0.5808,0.0,0.0,1,2,53000,1,MA,0,0,1,0,0,web,0,1,0,0,0,0,0,0,0,0,c:49236,0,1,0,0,0,0,1.0,1,0
370,CA,37.522281,-122.258139,94065,c:2234,Redwood City,,TwoFish,1,2006-01-01,,2006-12-01,2008-10-10,0.9151,2.7753,3.0027,3.6466,6,2,9500000,2,CA,1,0,0,0,0,ecommerce,0,0,0,0,0,0,1,0,0,0,c:2234,0,0,1,1,0,0,2.5,1,1
615,TX,40.694599,-73.990638,78701,c:3505,Austin,,Workstreamer,0,2009-10-01,6/1/2013,2009-01-01,2010-07-27,-0.7479,0.8192,-1.7507,0.2521,7,2,3500000,2,TX,0,0,0,1,0,enterprise,0,0,0,1,0,0,0,0,0,0,c:3505,0,1,1,0,0,0,1.0,1,0
925,NY,40.729839,-73.991781,10003,c:56989,New York,New York NY 10003,Qwiki,1,2009-10-01,,2010-07-10,2011-03-31,0.7726,1.4959,-0.5863,3.7534,14,3,10500000,3,NY,0,1,0,0,0,photo_video,0,0,0,0,0,0,0,0,0,1,c:56989,1,0,1,0,0,0,6.3333,1,1
506,CA,37.54827,-121.988572,94538,c:28482,Fremont,Fremont CA 94538,Redwood Systems,1,2008-01-01,,2008-10-03,2012-05-30,0.7562,4.4137,2.7836,4.0027,14,4,34250000,2,CA,1,0,0,0,0,cleantech,0,0,0,0,0,0,0,0,0,1,c:28482,1,0,1,1,1,0,2.25,1,1
704,MA,42.37564,-71.2358,2451,c:40324,Waltham,Waltham MA 2451,Artisan Pharma,1,2006-01-01,,2006-09-06,2010-07-20,0.6795,4.5507,,,2,5,85381111,0,MA,0,0,1,0,0,biotech,0,0,0,0,0,0,0,1,0,0,c:40324,0,0,1,1,1,0,4.6667,1,1
179,MD,39.436844,-76.61870400000002,21093,c:1595,Timonium,Timonium MD 21093,Bill Me Later,1,2000-01-01,,2006-03-01,2007-12-01,6.1671,7.9205,8.0055,11.2548,6,3,100000000,3,MD,0,0,0,0,1,web,0,1,0,0,0,0,0,0,0,0,c:1595,1,0,1,0,0,0,2.5,1,1
550,PA,40.441694,-79.990086,15213,c:31294,Pittsburgh,Pittsburgh PA 15213,Bueda,0,2009-01-04,6/1/2013,2008-01-01,2010-07-01,-1.011,1.4877,0.4055,1.3205,3,2,125000,2,PA,0,0,0,0,1,advertising,0,0,0,0,1,0,0,0,0,0,c:31294,1,1,0,0,0,0,1.0,1,0
764,VA,38.958402,-77.357974,20191,c:43875,Reston,Reston VA 20191,Defywire,0,2003-01-01,5/1/2008,2005-04-26,2007-03-27,2.3178,4.2356,-0.3342,-0.3342,2,2,10600000,1,VA,0,0,0,0,1,mobile,0,0,1,0,0,0,0,0,0,0,c:43875,1,0,0,1,0,0,3.0,1,0
218,CA,37.554214,-121.977451,94538,c:16562,Fremont,,Silicon Clocks,1,2004-01-01,,2006-06-02,2009-06-08,2.4192,5.4384,2.0027,2.0027,2,3,26100000,1,CA,1,0,0,0,0,semiconductor,0,0,0,0,0,0,0,0,0,1,c:16562,1,0,0,1,0,0,3.5,1,1
299,NY,40.762674,-73.9821315,10019,c:18075,New York,,TheMarkets,1,2000-01-01,,2007-07-12,2007-07-12,7.5315,7.5315,10.7342,10.7342,2,1,30000000,1,NY,0,1,0,0,0,web,0,1,0,0,0,0,0,0,0,0,c:18075,1,0,0,0,0,0,5.0,1,1
1114,IL,41.875555,-87.624421,60606,c:86120,Chicago,Chicago IL 60606,Netgamix Inc,0,2010-09-24,4/3/2012,2011-10-15,2012-07-01,1.0575,1.7699,1.0301,1.1123,6,3,132885,2,IL,0,0,0,0,1,games_video,0,0,0,0,0,1,0,0,0,0,c:86120,0,1,0,0,0,0,1.0,1,0
58,CA,37.55911,-122.303493,95054,c:12173,Santa Clara,,Sentrigo,1,2006-10-01,,2007-05-08,2010-12-21,0.6,4.2247,-0.7479,4.4767,9,3,9500000,2,CA,1,0,0,0,0,software,1,0,0,0,0,0,0,0,0,0,c:12173,0,0,1,1,1,0,2.0,1,1
782,CA,37.440682,-122.123103,94303,c:44650,Palo Alto,Palo Alto CA 94303,Netli,1,2000-01-01,,2006-02-13,2006-02-13,6.1233,6.1233,6.0055,6.0055,9,1,18000000,1,CA,1,0,0,0,0,network_hosting,0,0,0,0,0,0,0,0,0,1,c:44650,1,0,0,0,0,0,7.0,1,1
1020,OH,39.099909,-84.504243,45202,c:70021,Cincinnati,Cincinnati OH 45202,Define My Style,0,2010-02-01,1/1/2012,2011-12-02,2011-12-02,1.8329,1.8329,1.7479,1.7479,4,1,690000,1,OH,0,0,0,0,1,web,0,1,0,0,0,0,0,0,0,0,c:70021,0,1,0,0,0,0,3.0,1,0
280,GA,33.749099,-84.390185,30305,c:17660,Atlanta,Atlanta GA 30305,Firethorn,1,2001-01-01,,2006-03-01,2007-01-02,5.1644,6.0055,,,1,3,25131611,0,GA,0,0,0,0,1,mobile,0,0,1,0,0,0,0,0,0,0,c:17660,1,0,0,1,0,0,1.0,1,1
873,CA,37.404788,-121.940842,95134,c:51745,San Jose,San Jose CA 95134,Wellcore,0,2007-01-01,7/1/2013,2010-07-12,2010-07-12,3.5288,3.5288,,,1,1,2000000,0,CA,1,0,0,0,0,hardware,0,0,0,0,0,0,0,0,0,1,c:51745,0,0,0,0,0,0,1.0,1,0
430,MA,42.3634664,-71.07866379999999,2142,c:25324,Cambridge,,Taligen Therapeutics,1,2004-01-01,,2005-08-01,2010-08-23,1.5836,6.6466,5.0055,7.0877,4,3,78750000,2,MA,0,0,1,0,0,biotech,0,0,0,0,0,0,0,1,0,0,c:25324,0,0,1,1,0,0,3.5,1,1
1065,CA,37.551441,-122.291435,94403,c:77,San Mateo,,Adap.tv,1,2006-11-01,,2007-02-01,2011-03-28,0.2521,4.4055,3.3151,6.7918,27,5,48500000,3,CA,1,0,0,0,0,advertising,0,0,0,0,1,0,0,0,0,0,c:77,1,1,1,1,1,0,2.5,1,1
312,CA,37.77951820000001,-122.3902619,94107,c:1895,San Francisco,,Current Media,0,2005-01-01,8/20/2013,2005-07-29,2005-07-29,0.5726,0.5726,5.1671,8.0082,12,1,15000000,2,CA,1,0,0,0,0,network_hosting,0,0,0,0,0,0,0,0,0,1,c:1895,0,0,1,0,0,0,3.0,0,0
220,CA,37.31665260000001,-122.05074,95008,c:16593,Campbell,,ParAccel,1,2007-01-01,,2007-12-10,2012-04-25,0.9397,5.3178,,,13,5,74000000,0,CA,1,0,0,0,0,analytics,0,0,0,0,0,0,0,0,0,1,c:16593,1,0,0,1,1,0,5.3333,1,1
206,CA,37.783171,-122.392901,94107-4132,c:16289,San Francisco,,Arch Rock Corporation,1,2005-01-01,,2005-10-01,2007-05-02,0.7479,2.3315,2.0,2.0,6,2,15000000,1,CA,1,0,0,0,0,software,1,0,0,0,0,0,0,0,0,0,c:16289,0,0,1,1,0,0,3.0,1,1
928,NY,37.09024,-95.712891,10014,c:575,New York,,SpiralFrog,0,2004-01-01,3/20/2009,2006-01-01,2007-12-01,2.0027,3.9178,3.0027,5.2192,8,3,45000000,3,NY,0,1,0,0,0,games_video,0,0,0,0,0,1,0,0,0,0,c:575,0,0,1,0,0,0,1.0,0,0
158,CA,37.400367,-121.985711,95054,c:15562,Santa Clara,,Plusmo,1,2006-06-01,,2008-05-01,2008-05-01,1.9178,1.9178,2.0027,2.0027,4,1,4410000,1,CA,1,0,0,0,0,mobile,0,0,1,0,0,0,0,0,0,0,c:15562,0,0,1,0,0,0,1.0,1,1
979,VA,39.001619,-77.403201,20166,c:62432,Sterling,Sterling VA 20166,ZipList,1,2010-01-01,,2010-01-01,2010-11-24,0.0,0.8959,2.0,2.6767,9,2,4500000,2,VA,0,0,0,0,1,web,0,1,0,0,0,0,0,0,0,0,c:62432,0,0,1,1,0,0,2.0,1,1
1085,CA,37.788653,-122.401333,94105,c:8100,San Francisco,,Involver,1,2007-01-01,,2008-09-02,2010-10-14,1.6712,3.7863,4.6685,5.6849,11,3,11040000,2,CA,1,0,0,0,0,software,1,0,0,0,0,0,0,0,0,0,c:8100,0,0,1,1,1,0,2.5,1,1
977,CA,37.779281,-122.419236,94107,c:62262,San Francisco,San Francisco CA 94107,Lionside,1,2009-01-01,,2010-11-19,2010-11-19,1.8822,1.8822,1.3288,2.9479,6,1,1600000,2,CA,1,0,0,0,0,games_video,0,0,0,0,0,1,0,0,0,0,c:62262,0,0,1,0,0,0,3.0,1,1
639,NY,40.73901,-73.997259,10011,c:3686,New York,New York NY 10011,Game Trust,1,2002-01-01,,2005-06-01,2005-11-15,3.4164,3.874,7.7534,7.7534,3,2,9000000,1,NY,0,1,0,0,0,software,1,0,0,0,0,0,0,0,0,0,c:3686,1,0,0,1,0,0,4.0,1,1
1092,CA,37.548418700000006,-122.3151646,94403,c:82805,San Mateo,,Nearbuy Systems,1,2010-04-01,,2011-07-21,2012-11-23,1.3041,2.6493,0.0,3.6767,4,3,3282327,2,CA,1,0,0,0,0,analytics,0,0,0,0,0,0,0,0,0,1,c:82805,1,0,0,0,0,0,2.0,1,1
327,CA,37.55818,-122.276454,94404,c:196,Foster City,,Visible Path,1,2002-01-01,,2006-03-01,2006-03-01,4.1644,4.1644,5.5836,11.3918,5,2,24700000,5,CA,1,0,0,0,0,web,0,1,0,0,0,0,0,0,0,0,c:196,0,0,1,1,0,0,4.0,1,1
494,GA,33.774486,-84.385448,30308,c:28114,Atlanta,,VT Silicon,0,2002-01-01,9/20/2010,2007-09-12,2008-11-19,5.6986,6.8877,,,2,2,8800000,0,GA,0,0,0,0,1,semiconductor,0,0,0,0,0,0,0,0,0,1,c:28114,1,0,1,0,0,0,1.0,1,0
87,CA,34.03423370000001,-118.4536137,90025,c:13277,Los Angeles,,GetBack,0,2007-09-01,11/22/2010,2008-11-06,2008-11-06,1.1836,1.1836,0.9178,0.9178,1,1,1700000,1,CA,1,0,0,0,0,web,0,1,0,0,0,0,0,0,0,0,c:13277,0,0,1,0,0,0,1.0,0,0
985,CA,37.835676,-122.263548,94609,c:63217,Oakland,Oakland CA 94609,Slipstream,0,2010-06-01,5/1/2013,2010-08-31,2010-08-31,0.2493,0.2493,0.0,0.7781,1,1,20000,2,CA,1,0,0,0,0,web,0,1,0,0,0,0,0,0,0,0,c:63217,0,1,0,0,0,0,1.0,0,0
432,CA,37.5541073,-121.9756765,94538,c:2534,Fremont,,HipLogic,1,2005-01-01,,2008-02-08,2009-12-02,3.1041,4.9205,5.0027,8.3534,10,2,11500000,5,CA,1,0,0,0,0,mobile,0,0,1,0,0,0,0,0,0,0,c:2534,0,0,1,1,0,0,2.5,1,1
882,CA,38.279431,-122.668452,94954,c:5264,Petaluma,,Dilithium Networks,0,2001-01-01,10/1/2012,2003-04-23,2010-06-03,2.3068,9.4247,4.4986,11.4164,12,7,98170000,3,CA,1,0,0,0,0,mobile,0,0,1,0,0,0,0,0,0,0,c:5264,1,0,0,1,1,1,5.2,1,0
937,CA,37.7824533,-122.3879489,94107,c:58512,San Francisco,,Yobongo,1,2010-01-01,,2011-03-23,2011-03-23,1.2219,1.2219,0.7479,2.6849,2,1,1350000,3,CA,1,0,0,0,0,web,0,1,0,0,0,0,0,0,0,0,c:58512,0,1,0,0,0,0,10.0,1,1
77,IL,41.8851542,-87.62231829999998,60601,c:12957,Chicago,,Brickfish,1,2005-11-01,,2010-07-16,2010-07-16,4.7068,4.7068,2.989,6.863,17,1,940261,2,IL,0,0,0,0,1,software,1,0,0,0,0,0,0,0,0,0,c:12957,0,0,1,0,0,0,1.0,1,1
608,MA,42.360253,-71.058291,2109,c:34499,Boston,Boston MA 2109,MyEnergy,1,2007-06-04,,2009-02-01,2011-02-03,1.6658,3.6712,3.6658,3.6712,12,2,4000000,3,MA,0,0,1,0,0,web,0,1,0,0,0,0,0,0,0,0,c:34499,0,1,1,0,0,0,3.0,1,1
601,CA,37.36883,-122.03635,94085,c:34028,Sunnyvale,Sunnyvale CA 94085,LikeList,0,2008-01-01,12/6/2012,2009-12-15,2009-12-15,1.9562,1.9562,1.0027,1.0027,5,1,5000000,1,CA,1,0,0,0,0,web,0,1,0,0,0,0,0,0,0,0,c:34028,0,0,1,0,0,0,1.0,0,0
392,VA,38.881717,-77.089398,22201,c:23335,Arlington,,Social Collective,0,2009-04-17,3/6/2012,2009-04-18,2009-04-18,0.0027,0.0027,0.5836,0.5836,3,1,20000,1,VA,0,0,0,0,1,web,0,1,0,0,0,0,0,0,0,0,c:23335,0,1,0,0,0,0,1.0,0,0
535,WA,47.60732,-122.335746,98101,c:30526,Seattle,,Pure Networks,1,2002-01-01,,2006-01-11,2006-01-11,4.0301,4.0301,3.0027,3.0027,5,1,12500000,1,WA,0,0,0,0,1,network_hosting,0,0,0,0,0,0,0,0,0,1,c:30526,0,0,0,1,0,0,3.0,1,1
736,CO,39.568064,-104.977831,80112,c:42519,Centennial,Centennial CO 80112,Internet Pawn,0,2009-01-01,3/1/2013,2010-05-05,2013-08-27,1.3397,4.6548,1.3589,1.3753,0,5,7228704,2,CO,0,0,0,0,1,finance,0,0,0,0,0,0,0,0,0,1,c:42519,1,0,1,0,0,0,2.0,1,0
836,IL,41.940611,-87.835972,60631,c:48376,Chicago,Chicago IL 60631,NeuroTherapeutics Pharma,0,2006-01-01,6/1/2013,2010-05-20,2011-12-15,4.3836,5.9562,5.4986,5.4986,5,2,55000000,1,IL,0,0,0,0,1,biotech,0,0,0,0,0,0,0,1,0,0,c:48376,1,0,0,1,0,0,4.0,1,0
165,CA,37.560155,-122.285588,94404,c:15693,San Mateo,,Provade,1,2004-01-01,,2006-01-23,2010-08-11,2.063,6.6137,,,5,4,15180000,0,CA,1,0,0,0,0,enterprise,0,0,0,1,0,0,0,0,0,0,c:15693,1,0,1,0,1,0,1.0,1,1
828,CA,37.404788,-121.940842,95134,c:47587,San Jose,San Jose CA 95134,Infineta Systems,0,2008-01-01,1/1/2012,2010-05-07,2011-06-06,2.3479,3.4301,2.3562,4.0027,4,2,30000000,2,CA,1,0,0,0,0,software,1,0,0,0,0,0,0,0,0,0,c:47587,0,0,1,1,0,0,2.5,1,0
227,TX,30.268236,-97.740651,78701,c:1669,Austin,,Challenge Games,1,2006-01-01,,2008-07-10,2008-09-01,2.5233,2.6685,3.0027,4.4247,11,2,14500000,3,TX,0,0,0,1,0,network_hosting,0,0,0,0,0,0,0,0,0,1,c:1669,0,0,1,1,0,0,1.5,1,1
725,CA,37.758229,-122.439512,94114,c:421,San Francisco,,Crowd Factory,1,2009-01-01,,2011-01-26,2011-01-26,2.0685,2.0685,2.5808,4.3671,6,1,6500000,3,CA,1,0,0,0,0,advertising,0,0,0,0,1,0,0,0,0,0,c:421,1,0,0,0,0,0,3.0,1,1
159,TN,35.149021999999995,-90.05162800000002,38103-4717,c:155621,Memphis,Memphis TN 38103-4717,Friendsignia,0,2012-01-29,6/1/2013,2012-01-29,2012-01-29,0.0,0.0,0.0,0.0,2,1,15000,1,TN,0,0,0,0,1,web,0,1,0,0,0,0,0,0,0,0,c:155621,0,1,0,0,0,0,1.0,0,0
709,NY,40.730646,-73.986614,10013,c:40782,New York,New York NY 10013,Vizibility,1,2009-07-01,,2010-03-24,2013-02-06,0.7288,3.6055,1.589,4.1041,5,5,4705910,3,NY,0,1,0,0,0,mobile,0,0,1,0,0,0,0,0,0,0,c:40782,1,1,0,0,0,0,3.0,1,1
868,CA,37.5783263,-122.3485679,94010-4031,c:51306,Burlingame,,OpenFeint,1,2008-01-01,,2010-10-21,2010-10-21,2.8055,2.8055,3.0027,4.6493,6,1,3000000,2,CA,1,0,0,0,0,games_video,0,0,0,0,0,1,0,0,0,0,c:51306,1,0,0,0,0,0,1.0,1,1
30,NY,40.743808,-73.983626,10016,c:1088,New York,,Tumblr,1,2007-02-01,,2007-10-31,2012-01-01,0.7452,4.9178,3.0438,6.8411,30,6,125250000,5,NY,0,1,0,0,0,web,0,1,0,0,0,0,0,0,0,0,c:1088,1,0,1,1,1,1,3.5,1,1
609,NY,40.730646,-73.986614,10013,c:34522,New York,New York NY 10013,Hotlist,0,2008-01-01,5/1/2013,2008-05-01,2012-01-01,0.3315,4.0027,2.3644,3.6685,8,4,1449998,3,NY,0,1,0,0,0,social,0,0,0,0,0,0,0,0,0,1,c:34522,1,1,0,0,0,0,1.0,1,0
1102,MA,42.3751,-71.105616,2139,c:83692,Cambridge,Cambridge MA 2139,Crashlytics,1,2011-02-01,,2011-10-13,2012-04-10,0.6959,1.189,0.6629999999999999,2.6247,5,2,6000000,3,MA,0,0,1,0,0,mobile,0,0,1,0,0,0,0,0,0,0,c:83692,0,1,1,0,0,0,6.0,1,1
760,MN,45.006515,-93.46651,55441,c:43831,Plymouth,Plymouth MN 55441,BridgePoint Medical,1,2005-01-01,,2007-01-23,2011-03-25,2.0603,6.2301,,,7,3,28200000,0,MN,0,0,0,0,1,medical,0,0,0,0,0,0,0,0,0,1,c:43831,1,0,0,1,1,0,3.0,1,1
502,CA,37.777741,-122.412198,94104,c:28428,San Francisco,,Recurve,1,2005-08-01,,2008-09-23,2010-06-17,3.1479,4.8795,5.0027,5.0027,5,2,14000000,1,CA,1,0,0,0,0,software,1,0,0,0,0,0,0,0,0,0,c:28428,1,0,1,0,0,0,2.0,1,1
295,TX,30.35504,-97.801083,78730,c:17974,Austin,,Conformity,0,2007-07-01,1/1/2009,2009-01-28,2009-01-28,1.5808,1.5808,2.2521,2.5342,14,1,3000000,2,TX,0,0,0,1,0,enterprise,0,0,0,1,0,0,0,0,0,0,c:17974,0,0,1,0,0,0,1.0,0,0
1087,WA,39.78373,-100.445882,98104,c:81475,Seattle,Seattle WA 98104,Moprise,0,2010-01-01,7/1/2013,2011-07-08,2011-10-07,1.5151,1.7644,0.7479,0.7479,6,2,2238055,1,WA,0,0,0,0,1,enterprise,0,0,0,1,0,0,0,0,0,0,c:81475,1,1,0,0,0,0,1.0,1,0
1060,CA,37.779281,-122.419236,94108,c:76543,San Francisco,San Francisco CA 94108,Plizy,0,2010-09-01,6/1/2013,2011-05-19,2012-12-13,0.7123,2.2849,1.9507,2.2822,5,2,5200000,2,CA,1,0,0,0,0,photo_video,0,0,0,0,0,0,0,0,0,1,c:76543,1,0,1,0,0,0,1.0,1,0
1105,PA,40.0708709,-75.302716,19428,c:84161,Conshohocken,,ShopRunner,1,2010-01-01,,2013-08-19,2013-08-19,3.6329,3.6329,1.1479,3.7781,4,1,75000000,4,PA,0,0,0,0,1,ecommerce,0,0,0,0,0,0,1,0,0,0,c:84161,1,0,0,0,0,0,1.0,0,1
1084,MA,42.296111,-71.238524,2494,c:810,Needham,,RatePoint,0,2006-09-01,2/2/2012,2007-01-29,2010-08-20,0.411,3.9699,4.2521,5.7671,13,4,24500000,4,MA,0,0,1,0,0,software,1,0,0,0,0,0,0,0,0,0,c:810,0,0,1,1,1,0,2.5,1,0
215,CA,33.63776,-117.855989,92660,c:16488,Newport Beach,,Digital Performance,0,2002-01-01,10/1/2012,2006-11-27,2010-02-05,4.9068,8.1014,,,3,3,4476171,0,CA,1,0,0,0,0,advertising,0,0,0,0,1,0,0,0,0,0,c:16488,1,0,1,0,0,0,2.0,1,0
35,TX,30.2729209,-97.7443863,78701,c:11042,Austin,,Gowalla,1,2007-08-28,,2008-02-27,2010-01-28,0.5014,2.4219,2.8192,5.8849,21,3,10400001,3,TX,0,0,0,1,0,web,0,1,0,0,0,0,0,0,0,0,c:11042,0,0,1,1,0,0,6.0,1,1
276,CO,40.138979,-105.124465,80501,c:17633,Longmont,,Copan Systems,1,2002-01-01,,2006-03-08,2009-02-17,4.1836,7.1342,5.0027,5.0027,8,3,68400000,1,CO,0,0,0,0,1,network_hosting,0,0,0,0,0,0,0,0,0,1,c:17633,1,0,0,0,1,1,6.5,1,1
569,CA,37.512318,-122.20091399999998,94063,c:3187,Redwood City,,Replay Solutions,1,2004-01-01,,2006-12-05,2008-08-18,2.9288,4.6329,,,13,2,15200000,0,CA,1,0,0,0,0,software,1,0,0,0,0,0,0,0,0,0,c:3187,0,0,1,1,0,0,2.0,1,1
216,NY,40.728425,-73.999882,10012,c:164922,New York,New York NY 10012,Turf Geography Club,0,2011-01-01,2/1/2013,2011-08-15,2012-08-02,0.6192,1.5863,,,2,2,890000,0,NY,0,1,0,0,0,mobile,0,0,1,0,0,0,0,0,0,0,c:164922,0,1,0,0,0,0,3.0,1,0
1090,CA,37.779281,-122.419236,94108,c:81886,San Francisco,San Francisco CA 94108,skyrockit,0,2001-01-01,4/1/2012,2011-07-12,2011-07-12,10.5315,10.5315,,,0,1,2600000,0,CA,1,0,0,0,0,mobile,0,0,1,0,0,0,0,0,0,0,c:81886,1,0,0,0,0,0,1.0,1,0
901,IL,41.800255,-88.149362,60563,c:54585,Naperville,,Cartavi,1,2009-01-01,,2012-11-13,2012-11-13,3.8685,3.8685,3.8301,4.0877,7,1,1226270,2,IL,0,0,0,0,1,enterprise,0,0,0,1,0,0,0,0,0,0,c:54585,0,1,0,0,0,0,1.0,1,1
46,CA,34.147047,-118.148896,91101,c:11507,Pasadena,,Cramster,1,2002-01-01,,2008-09-25,2010-04-14,6.737,8.2877,6.7534,6.7534,5,2,9000000,1,CA,1,0,0,0,0,web,0,1,0,0,0,0,0,0,0,0,c:11507,0,0,1,1,0,0,1.0,0,1
419,CA,37.317847,-121.948469,95128,c:24860,San Jose,,Certify Data Systems,1,2004-01-01,,2008-08-25,2012-02-15,4.6521,8.1288,6.0055,6.0055,4,4,7210210,1,CA,1,0,0,0,0,enterprise,0,0,0,1,0,0,0,0,0,0,c:24860,1,0,1,1,0,0,1.0,0,1
135,CA,37.779281,-122.419236,94103,c:148750,San Francisco,San Francisco CA 94103,Wheelz,1,2011-01-01,,2011-09-28,2012-02-22,0.7397,1.1425,0.5808,0.5808,15,2,15700000,1,CA,1,0,0,0,0,automotive,0,0,0,0,0,0,0,0,0,1,c:148750,0,0,1,0,0,0,3.0,1,1
798,MA,42.37564,-71.2358,2451,c:45611,Waltham,Waltham MA 2451,CentrePath,1,2000-01-01,,2005-09-06,2006-04-24,5.6849,6.3151,5.0055,5.0055,4,2,15050000,1,MA,0,0,1,0,0,software,1,0,0,0,0,0,0,0,0,0,c:45611,1,0,0,0,1,0,2.5,1,1
712,CA,37.8093381,-122.4166061,94111,c:4106,San Francisco,,VoxPop Network Corporation,1,2006-08-01,,2007-05-01,2009-05-01,0.7479,2.7507,1.5836,4.5315,5,2,3500000,2,CA,1,0,0,0,0,games_video,0,0,0,0,0,1,0,0,0,0,c:4106,0,0,1,1,0,0,3.0,1,1
286,CA,37.43841079999999,-121.9240273,95035,c:17775,Milpitas,,OpVista,0,2000-01-01,8/1/2009,2006-06-22,2007-05-07,6.4767,7.3507,5.0055,5.0055,2,2,43000000,1,CA,1,0,0,0,0,software,1,0,0,0,0,0,0,0,0,0,c:17775,0,0,0,0,1,1,1.0,1,0
115,CA,37.775196,-122.419204,94105,c:144,San Francisco,,Metaweb Technologies,1,2005-01-01,,2006-03-01,2008-01-15,1.1616,3.0384,3.2658,5.5397,7,2,57000000,2,CA,1,0,0,0,0,web,0,1,0,0,0,0,0,0,0,0,c:144,0,0,1,1,0,0,3.5,1,1
81,CA,37.78811500000001,-122.397141,94105,c:13046,San Francisco,,DocVerse,1,2007-09-01,,2008-07-23,2008-07-23,0.8932,0.8932,0.8329,4.2137,8,1,1300000,4,CA,1,0,0,0,0,web,0,1,0,0,0,0,0,0,0,0,c:13046,0,1,0,0,0,0,4.0,1,1
699,CA,32.902266,-117.20834,92121,c:40,San Diego,,Veoh,1,2004-01-01,,2005-07-01,2008-06-03,1.4986,4.4247,4.0877,9.737,15,4,69750000,4,CA,1,0,0,0,0,games_video,0,0,0,0,0,1,0,0,0,0,c:40,0,0,1,1,1,1,5.0,1,1
456,MA,42.341899,-71.065924,2118,c:26460,Boston,,BzzAgent,1,2001-01-01,,2004-01-01,2006-01-01,3.0,5.0027,9.6247,10.3945,16,2,14500000,2,MA,0,0,1,0,0,advertising,0,0,0,0,1,0,0,0,0,0,c:26460,0,1,0,1,0,0,2.0,1,1
176,CA,37.40006,-122.049689,94043,c:15887,Mountain View,,Hammerhead Systems,0,2002-01-01,3/23/2009,2006-01-31,2007-08-01,4.0849,5.5836,,,2,2,48000000,0,CA,1,0,0,0,0,hardware,0,0,0,0,0,0,0,0,0,1,c:15887,0,0,0,0,1,1,6.0,1,0
638,PA,40.418851,-79.904163,15218,c:36742,Pittsburgh,Pittsburgh PA 15218,ThermalTherapeuticSystems,0,2006-06-01,3/13/2013,2009-12-01,2011-11-09,3.5041,5.4438,,,3,2,3508462,0,PA,0,0,0,0,1,medical,0,0,0,0,0,0,0,0,0,1,c:36742,1,0,1,0,0,0,3.0,1,0
691,CA,37.778613,-122.395289,94404,c:3962,San Mateo,,GuardianEdge Technologies,1,2002-01-01,,2005-06-06,2007-07-23,3.4301,5.5589,7.8384,7.8384,10,3,19500000,1,CA,1,0,0,0,0,software,1,0,0,0,0,0,0,0,0,0,c:3962,0,0,1,1,0,0,3.3333,1,1
196,CA,34.019657,-118.487549,90405,c:162116,Santa Monica,Santa Monica CA 90405,Gradient X,1,2012-01-01,,2012-06-20,2012-06-20,0.4685,0.4685,1.1041,1.6795,5,1,3750000,3,CA,1,0,0,0,0,mobile,0,0,1,0,0,0,0,0,0,0,c:162116,0,0,0,0,0,0,9.0,1,1
906,IL,41.817807,-88.173402,60555,c:55044,Warrenville,Warrenville IL 60555,ezzai - how to arabia,0,2010-08-01,8/1/2011,2010-08-01,2010-08-01,0.0,0.0,,,1,1,45000000,0,IL,0,0,0,0,1,web,0,1,0,0,0,0,0,0,0,0,c:55044,0,0,0,0,0,0,2.0,0,0
1033,NC,35.79181,-78.74123,27607,c:7207,Raleigh,,rPath,0,2005-04-01,5/1/2013,2006-01-24,2010-10-22,0.8164,5.5616,4.5562,7.9863,8,4,32500000,3,NC,0,0,0,0,1,enterprise,0,0,0,1,0,0,0,0,0,0,c:7207,0,0,1,1,1,1,2.75,1,0
1115,PA,40.063476,-75.457492,19312,c:863,Berwyn,,Boomi,1,2000-03-01,,2002-01-01,2008-07-01,1.8384,8.3397,5.674,13.5562,4,2,4900000,5,PA,0,0,0,0,1,enterprise,0,0,0,1,0,0,0,0,0,0,c:863,0,1,0,1,0,0,1.5,1,1
183,CA,37.382376,-122.037607,94086,c:16066,Sunnyvale,,VoloMedia,0,2005-01-01,2/3/2011,2007-04-20,2008-03-18,2.2986,3.2110000000000003,3.5945,4.5753,4,2,12000000,3,CA,1,0,0,0,0,advertising,0,0,0,0,1,0,0,0,0,0,c:16066,0,0,0,1,1,0,2.0,1,0
363,CA,37.76690900000001,-122.406676,94103,c:220,San Francisco,,Flixster,1,2006-01-20,,2006-02-01,2008-04-04,0.0329,2.2055,4.5151,6.9123,12,3,7175000,6,CA,1,0,0,0,0,web,0,1,0,0,0,0,0,0,0,0,c:220,0,1,1,1,0,0,2.6667,1,1
894,CA,37.793148,-122.402567,94104,c:54,San Francisco,,Wesabe,0,2005-12-01,6/30/2010,2007-02-01,2007-06-01,1.1699,1.4986,0.0849,5.3863,3,2,4700000,4,CA,1,0,0,0,0,web,0,1,0,0,0,0,0,0,0,0,c:54,0,1,1,0,0,0,1.5,1,0
1147,CA,26.0524615,-80.1378809,95037,c:9730,Morgan Hill,,OfferLounge,0,2008-01-01,5/1/2010,2008-01-01,2008-01-01,0.0,0.0,,,3,1,120000,0,CA,1,0,0,0,0,public_relations,0,0,0,0,0,0,0,0,0,1,c:9730,0,1,0,0,0,0,2.0,0,0
549,CA,37.393679,-122.079017,94041,c:3122,Mountain View,,NeoEdge Networks,1,2002-05-02,,2007-06-08,2010-12-20,5.1041,8.6411,5.6712,6.8986,10,3,10000000,2,CA,1,0,0,0,0,advertising,0,0,0,0,1,0,0,0,0,0,c:3122,1,0,0,1,0,0,1.6667,0,1
636,TX,30.435079,-97.770139,78729,c:36579,Austin,Austin TX 78729,SemiSouth Laboratories,0,2000-07-01,6/1/2013,2005-06-14,2010-10-22,4.9562,10.3151,,,0,4,39000000,0,TX,0,0,0,1,0,semiconductor,0,0,0,0,0,0,0,0,0,1,c:36579,1,0,1,0,0,0,3.0,0,0
750,MA,42.345927,-71.55228699999998,01752-4603,c:43327,Marlborough,Marlborough MA 01752-4603,Camiant,1,2003-01-01,,2005-03-29,2007-01-11,2.2411,4.0301,,,3,2,16100000,0,MA,0,0,1,0,0,software,1,0,0,0,0,0,0,0,0,0,c:43327,0,0,0,1,1,0,2.5,1,1
291,CA,37.795191,-122.430411,94115,c:1789,San Francisco,,NuConomy,1,2006-01-01,,2007-04-01,2008-02-01,1.2466,2.0849,2.4986,5.3233,4,2,3300000,3,CA,1,0,0,0,0,advertising,0,0,0,0,1,0,0,0,0,0,c:1789,0,1,1,0,0,0,2.0,1,1
671,CA,37.779281,-122.419236,94110,c:38339,San Francisco,San Francisco CA 94110,Flowtown,1,2009-02-01,,2010-08-25,2010-08-25,1.5616,1.5616,1.2438,1.7726,6,1,750000,3,CA,1,0,0,0,0,analytics,0,0,0,0,0,0,0,0,0,1,c:38339,0,1,0,0,0,0,9.0,1,1
90,GA,33.776834,-84.3895875,30308,c:13410,Atlanta,,GlobalCrypto,0,2006-06-01,7/6/2012,2008-11-11,2008-11-11,2.4493,2.4493,,,0,2,1000000,0,GA,0,0,0,0,1,software,1,0,0,0,0,0,0,0,0,0,c:13410,1,1,0,0,0,0,2.0,0,0
766,NY,40.730646,-73.986614,10154,c:43915,New York,New York NY 10154,Bioenvision,0,1996-01-01,8/13/2009,2007-04-30,2007-04-30,11.3342,11.3342,,,3,1,7410000,0,NY,0,1,0,0,0,biotech,0,0,0,0,0,0,0,1,0,0,c:43915,1,0,0,0,0,0,3.0,1,0
653,CA,37.404788,-121.940842,95134,c:37712,San Jose,San Jose CA 95134,Teranetics,1,2000-01-01,,2006-11-21,2010-05-27,6.8932,10.4082,,,5,3,52800000,0,CA,1,0,0,0,0,semiconductor,0,0,0,0,0,0,0,0,0,1,c:37712,1,0,0,0,1,0,5.3333,1,1
587,CA,33.97279,-118.427578,90094,c:3288,Playa Vista,Playa Vista CA 90094,WebVisible,0,2001-01-01,10/1/2011,2005-09-01,2010-02-11,4.6685,9.1178,9.7534,12.8027,33,3,37000000,4,CA,1,0,0,0,0,software,1,0,0,0,0,0,0,0,0,0,c:3288,0,0,1,1,1,0,1.3333,1,0
7,CA,37.7983181,-122.4000032,94111,c:10179,San Francisco,,GoodGuide,1,2007-12-01,,2009-01-19,2011-08-26,1.137,3.737,2.463,3.2164,14,3,14229998,3,CA,1,0,0,0,0,web,0,1,0,0,0,0,0,0,0,0,c:10179,0,0,1,1,0,0,3.0,1,1
596,CA,37.320309,-122.05004,95014,c:33869,Cupertino,Cupertino CA 95014,ViVu,1,2009-01-01,,2009-09-21,2011-06-09,0.7205,2.4356,0.7671,2.7918,7,2,3000000,2,CA,1,0,0,0,0,messaging,0,0,0,0,0,0,0,0,0,1,c:33869,0,0,1,1,0,0,2.5,1,1
356,NY,40.730646,-73.986614,10013,c:21528,New York,New York NY 10013,avVenta,1,2005-01-01,,2009-01-14,2009-01-14,4.0384,4.0384,6.0027,6.0027,10,1,20000000,1,NY,0,1,0,0,0,advertising,0,0,0,0,1,0,0,0,0,0,c:21528,0,0,1,0,0,0,1.0,0,1
542,RI,51.43247,-2.664213,2906,c:30820,Providence,Providence RI 2906,DiJiPOP,1,2008-11-01,,2009-08-01,2010-12-06,0.7479,2.0959,1.6548,2.0959,6,2,2000000,3,RI,0,0,0,0,1,advertising,0,0,0,0,1,0,0,0,0,0,c:30820,0,1,0,0,0,0,1.5,1,1
443,DC,38.897976,-77.028561,20005,c:25782,Washington,,Layer 7 Technologies,1,2003-01-01,,2006-10-26,2009-02-02,3.8192,6.0932,9.0055,9.7726,3,2,19900000,2,DC,0,0,0,0,1,software,1,0,0,0,0,0,0,0,0,0,c:25782,1,0,0,1,0,0,2.0,1,1
487,CA,37.781689,-122.391061,94107,c:278,San Francisco,,DeliveryEdge,0,2006-09-01,4/1/2009,2007-12-01,2007-12-01,1.2493,1.2493,2.589,2.589,6,1,1500000,1,CA,1,0,0,0,0,ecommerce,0,0,0,0,0,0,1,0,0,0,c:278,0,0,0,0,0,0,1.0,0,0
1050,CA,37.779281,-122.419236,94105,c:75500,San Francisco,San Francisco CA 94105,Solmentum,0,2009-07-01,11/9/2011,2009-07-01,2009-07-01,0.0,0.0,1.2521,1.2521,4,1,325000,1,CA,1,0,0,0,0,cleantech,0,0,0,0,0,0,0,0,0,1,c:75500,0,1,0,0,0,0,4.0,0,0
1009,CA,37.787249,-122.3990501,94105,c:67806,San Francisco,,Pipewise,0,2010-09-01,10/1/2012,2011-02-17,2011-02-17,0.463,0.463,1.2795,1.8192,16,1,3500000,2,CA,1,0,0,0,0,enterprise,0,0,0,1,0,0,0,0,0,0,c:67806,0,0,1,0,0,0,5.0,1,0
55,WA,47.602873,-122.336132,98104,c:1212,Seattle,,GridNetworks,0,2004-01-01,8/17/2012,2006-01-01,2008-05-20,2.0027,4.3863,1.5836,4.1918,7,4,30000000,2,WA,0,0,0,0,1,network_hosting,0,0,0,0,0,0,0,0,0,1,c:1212,0,1,1,1,0,0,2.0,1,0
560,CA,39.78373,-100.445882,94043-1107,c:31754,Mountain View,Mountain View CA 94043-1107,MAP Pharmaceuticals,1,2003-01-01,,2007-03-28,2007-03-28,4.2384,4.2384,,,1,1,50000000,0,CA,1,0,0,0,0,biotech,0,0,0,0,0,0,0,1,0,0,c:31754,0,0,0,0,0,1,6.0,1,1
429,NY,40.745003,-73.98322900000002,10016,c:25307,New York,,"ORCA, Inc.",1,2008-01-01,,2009-06-21,2009-06-21,1.4712,1.4712,1.0027,1.4712,5,1,2000000,2,NY,0,1,0,0,0,ecommerce,0,0,0,0,0,0,1,0,0,0,c:25307,0,0,1,0,0,0,3.0,1,1
307,CA,37.52845,-122.263721,94065,c:1870,Redwood City,,Amobee,1,2005-05-01,,2006-11-01,2011-03-01,1.5041,5.8356,6.1699,8.3534,25,6,72000000,2,CA,1,0,0,0,0,advertising,0,0,0,0,1,0,0,0,0,0,c:1870,1,0,1,1,1,1,2.3333,1,1
475,CA,34.045919,-118.16525,91754,c:27285,Monterey Park,,KOTURA,1,2004-01-01,,2005-09-07,2009-11-05,1.6849,5.8493,8.4219,8.4219,4,3,27690547,1,CA,1,0,0,0,0,cleantech,0,0,0,0,0,0,0,0,0,1,c:27285,0,0,0,1,1,1,4.5,1,1
837,TX,33.068275,-96.711101,75023,c:48640,Plano,Plano TX 75023,Auvitek International,0,2004-03-01,2/20/2011,2006-05-09,2006-05-09,2.189,2.189,,,32,1,9000000,0,TX,0,0,0,1,0,semiconductor,0,0,0,0,0,0,0,0,0,1,c:48640,0,0,0,1,0,0,4.0,1,0
305,CA,37.287285,-121.942932,94041,c:18470,Mountain View,,Outright,1,2008-06-01,,2008-11-01,2009-11-18,0.4192,1.4658,3.1315,4.137,12,2,7500000,3,CA,1,0,0,0,0,enterprise,0,0,0,1,0,0,0,0,0,0,c:18470,0,0,1,0,0,0,3.5,1,1
354,TX,30.271393,-97.748623,78701,c:21395,Austin,,Phurnace Software,1,2007-01-01,,2007-09-11,2008-07-01,0.6932,1.4986,3.4164,3.4164,9,2,10000000,1,TX,0,0,0,1,0,software,1,0,0,0,0,0,0,0,0,0,c:21395,0,0,1,0,0,0,2.0,1,1
426,CA,34.142973,-118.140553,91105,c:25132,Pasadena,,FastSoft,1,2006-01-01,,2007-06-11,2012-09-04,1.4411,6.6795,2.0,2.0,7,4,5965000,1,CA,1,0,0,0,0,software,1,0,0,0,0,0,0,0,0,0,c:25132,1,0,1,0,0,0,1.0,0,1
1032,CA,37.465645,-121.932202,94538,c:72,Fremont,,GrandCentral,1,2006-04-01,,2006-01-01,2006-01-01,-0.2466,-0.2466,-0.4082,7.4548,9,1,4000000,4,CA,1,0,0,0,0,mobile,0,0,1,0,0,0,0,0,0,0,c:72,0,0,1,0,0,0,1.0,0,1
261,MI,42.548008,-83.214753,48025,c:17429,Bingham Farms,,Speedshape,0,2003-01-01,8/1/2013,2008-02-20,2008-02-20,5.1397,5.1397,7.0055,7.0055,2,1,5000000,1,MI,0,0,0,0,1,advertising,0,0,0,0,1,0,0,0,0,0,c:17429,1,0,0,0,0,0,1.0,0,0
838,CA,37.32052,-121.948399,95128,c:487,San Jose,,BlueLithium,1,2004-01-01,,2005-02-01,2005-02-01,1.0877,1.0877,5.0959,7.3863,15,1,11500000,2,CA,1,0,0,0,0,advertising,0,0,0,0,1,0,0,0,0,0,c:487,0,0,1,0,0,0,2.0,1,1
707,IL,41.875555,-87.624421,60657,c:40665,Chicago,Chicago IL 60657,Media Chaperone,0,2009-01-01,6/1/2013,2010-01-14,2011-02-24,1.0356,2.1479,1.5808,1.5808,2,2,1050000,1,IL,0,0,0,0,1,web,0,1,0,0,0,0,0,0,0,0,c:40665,1,0,0,0,0,0,1.0,0,0
523,NY,40.7566658,-73.9827553,10036,c:2972,New York,,Giant Realm,1,2007-01-01,,2008-03-01,2008-05-08,1.1644,1.3507,1.3507,3.3315,13,2,5500000,2,NY,0,1,0,0,0,web,0,1,0,0,0,0,0,0,0,0,c:2972,0,0,1,0,0,0,2.0,1,1
303,PA,39.951311,-75.169522,10011,c:1832,Philadelphia,,Invite Media,1,2007-02-01,,2007-12-01,2009-12-01,0.8301,2.8329,1.0877,3.337,17,3,5000000,4,PA,0,0,0,0,1,advertising,0,0,0,0,1,0,0,0,0,0,c:1832,0,1,1,0,0,0,1.6667,1,1
529,CA,37.406914,-122.09037,94043,c:30173,Mountain View,Mountain View CA 94043,UpMo,0,2011-01-01,7/1/2013,2009-12-13,2011-08-17,-1.0521,0.6247,-1.3589,1.663,11,2,3700000,3,CA,1,0,0,0,0,enterprise,0,0,0,1,0,0,0,0,0,0,c:30173,1,0,0,0,0,0,3.0,0,0
267,CA,36.9397206,-121.7768449,95019-2901,c:17512,Freedom,,Appscio,0,2006-01-01,1/1/2011,2007-03-20,2009-01-03,1.2137,3.0082,,,4,2,7000000,0,CA,1,0,0,0,0,software,1,0,0,0,0,0,0,0,0,0,c:17512,0,0,1,0,0,0,2.0,0,0
1098,MA,42.375219,-71.056101,2129,c:833,Boston,,Eons,0,2005-01-01,5/17/2012,2006-04-01,2007-03-01,1.2466,2.1616,2.0,3.8137,14,2,32000000,4,MA,0,0,1,0,0,network_hosting,0,0,0,0,0,0,0,0,0,1,c:833,0,0,1,1,0,0,3.5,1,0
971,MA,42.358822,-71.104329,2142,c:615,Cambridge,,LocaModa,1,2007-01-01,,2007-09-18,2011-03-25,0.7123,4.2301,2.6685,3.0575,8,3,7900000,2,MA,0,0,1,0,0,advertising,0,0,0,0,1,0,0,0,0,0,c:615,0,0,1,0,0,0,2.0,0,1
258,CA,37.392443,-122.072517,94110,c:1731,San Francisco,,Meraki,1,2006-04-01,,2006-12-01,2012-07-10,0.6685,6.2795,2.7945,7.4493,16,5,80000000,3,CA,1,0,0,0,0,network_hosting,0,0,0,0,0,0,0,0,0,1,c:1731,0,1,1,1,1,1,2.25,1,1
693,TX,30.280148,-97.749908,78701,c:39755,Austin,Austin TX 78701,MPOWER Mobile,0,2005-01-01,6/8/2012,2009-10-28,2009-10-28,4.8247,4.8247,0.2466,0.2466,1,1,5000000,1,TX,0,0,0,1,0,mobile,0,0,1,0,0,0,0,0,0,0,c:39755,1,0,0,0,0,0,1.0,1,0
89,WA,47.638456,-122.356965,98109,c:134,Seattle,,Haute Secure,1,2006-01-01,,2007-01-01,2009-03-09,1.0,3.1863,2.4301,7.6247,5,2,2100000,3,WA,0,0,0,0,1,security,0,0,0,0,0,0,0,0,0,1,c:134,0,1,1,0,0,0,1.5,1,1
984,MD,39.116333,-77.18130699999998,20814,c:6313,Bethesda,,Intelliworks,1,2004-12-01,,2005-02-14,2009-04-24,0.2055,4.3973,3.4164,3.4164,6,4,22250000,1,MD,0,0,0,0,1,enterprise,0,0,0,1,0,0,0,0,0,0,c:6313,0,0,1,1,1,1,2.5,1,1
27,OR,45.520247,-122.674195,97209,c:107746,Portland,Portland OR 97209,Meridian,1,2011-03-01,,2011-09-14,2012-08-30,0.5397,1.5014,-14.1699,2.2082,6,2,1975000,2,OR,0,0,0,0,1,enterprise,0,0,0,1,0,0,0,0,0,0,c:107746,1,1,0,0,0,0,3.0,0,1
437,NY,40.723652,-73.985281,10016,c:2566,New York,,Kluster,1,2008-01-01,,2008-01-01,2008-01-01,0.0,0.0,3.5918,4.3260000000000005,0,1,1000000,2,NY,0,1,0,0,0,web,0,1,0,0,0,0,0,0,0,0,c:2566,0,1,0,0,0,0,1.0,1,1
827,PA,40.602206,-75.47127900000002,18106,c:47440,Allentown,Allentown PA 18106,International Battery,0,2008-01-01,3/1/2013,2010-05-06,2010-05-06,2.3452,2.3452,,,0,1,35000000,0,PA,0,0,0,0,1,cleantech,0,0,0,0,0,0,0,0,0,1,c:47440,0,0,0,0,1,0,1.0,0,0
770,NY,37.480999,-122.173887,10016,c:44,New York,,Jingle Networks,1,2005-09-01,,2005-10-01,2009-12-28,0.0822,4.3260000000000005,3.663,5.6110000000000015,12,7,88651133,5,NY,0,1,0,0,0,mobile,0,0,1,0,0,0,0,0,0,0,c:44,1,1,1,1,1,1,3.1667,1,1
536,MA,42.5656454,-71.3222696,01862-2000,c:30527,North Billerica,,SemEquip,1,2000-01-01,,2005-08-04,2005-08-04,5.5945,5.5945,,,3,1,26000000,0,MA,0,0,1,0,0,semiconductor,0,0,0,0,0,0,0,0,0,1,c:30527,1,0,0,0,0,0,2.0,1,1
1096,CA,34.054935,-118.244476,90017,c:83176,Los Angeles,Los Angeles CA 90017,ItsGoinOn,0,2010-05-01,11/1/2011,2011-01-01,2011-01-01,0.6712,0.6712,0.0,0.7562,3,1,100000,2,CA,1,0,0,0,0,games_video,0,0,0,0,0,1,0,0,0,0,c:83176,0,1,0,0,0,0,1.0,0,0
343,CO,39.750152,-104.99643799999998,80202,c:20488,Denver,Denver CO 80202,mSnap,1,2005-06-01,,2006-06-01,2006-06-01,1.0,1.0,3.811,4.9178,6,1,5000000,3,CO,0,0,0,0,1,mobile,0,0,1,0,0,0,0,0,0,0,c:20488,0,0,1,0,0,0,1.0,1,1
412,GA,34.062588,-84.16923,30097,c:24570,Duluth,,Biofisica,0,2000-01-01,4/26/2012,2006-10-31,2008-04-21,6.8356,8.3096,,,5,2,7300000,0,GA,0,0,0,0,1,biotech,0,0,0,0,0,0,0,1,0,0,c:24570,1,0,1,0,0,0,3.0,1,0
344,CA,37.406914,-122.09037,94043,c:20506,Mountain View,Mountain View CA 94043,Ardian,1,2003-01-01,,2005-01-01,2009-03-23,2.0027,6.2274,4.0027,10.7616,8,3,64080000,2,CA,1,0,0,0,0,biotech,0,0,0,0,0,0,0,1,0,0,c:20506,0,0,1,1,1,0,4.0,1,1
1016,RI,51.43247,-2.664213,2903,c:69279,Providence,Providence RI 2903,Tracelytics,1,2010-07-01,,2011-11-03,2012-03-22,1.3425,1.726,-0.0822,1.7205,8,2,5800000,2,RI,0,0,0,0,1,enterprise,0,0,0,1,0,0,0,0,0,0,c:69279,0,1,1,0,0,0,4.0,1,1
389,CA,37.791388,-122.392148,94105,c:23192,San Francisco,,Canopy Financial,0,2004-01-01,8/27/2009,2008-01-01,2009-10-01,4.0027,5.7534,5.9233,6.0,6,4,89500000,2,CA,1,0,0,0,0,finance,0,0,0,0,0,0,0,0,0,1,c:23192,0,0,0,1,1,0,1.0,1,0
661,CA,37.788482,-122.409173,94102,c:38,San Francisco,,Kyte,1,2006-12-01,,2007-07-01,2012-03-01,0.5808,5.2521,3.0877,4.1699,11,4,23350000,2,CA,1,0,0,0,0,games_video,0,0,0,0,0,1,0,0,0,0,c:38,0,1,1,1,0,0,3.0,1,1
1042,MA,42.393662,-71.25585500000003,2451,c:7376,Waltham,,Ounce Labs,1,2002-10-01,,2006-06-08,2008-09-16,3.6877,5.9644,,,7,2,13500000,0,MA,0,0,1,0,0,software,1,0,0,0,0,0,0,0,0,0,c:7376,1,0,0,0,1,0,2.5,1,1
185,MA,42.496515,-71.480233,1719,c:16070,Boxborough,,Crossbeam Systems,1,2000-01-01,,2007-05-08,2008-02-14,7.3534,8.126,11.0329,11.0575,13,2,24500000,2,MA,0,0,1,0,0,security,0,0,0,0,0,0,0,0,0,1,c:16070,0,0,0,0,0,0,5.5,1,1
890,CA,37.534538,-122.252466,94065,c:53814,Redwood City,Redwood City CA 94065,PacketHop,0,2002-01-01,1/4/2013,2005-08-08,2005-08-08,3.6027,3.6027,3.0027,3.0027,2,1,10000000,1,CA,1,0,0,0,0,public_relations,0,0,0,0,0,0,0,0,0,1,c:53814,0,0,0,0,1,0,4.0,1,0
891,UT,40.767013,-111.890431,84124,c:53831,Salt Lake City,Salt Lake City UT 84124,Inaura,0,2007-01-01,7/19/2012,2005-01-06,2005-01-06,-1.9863,-1.9863,,,3,1,8500000,0,UT,0,0,0,0,1,other,0,0,0,0,0,0,0,0,0,1,c:53831,1,0,0,0,0,0,1.0,0,0
405,TX,30.161661,-95.471256,77380,c:24040,The Woodlands,,DynaPump,0,1992-01-01,11/12/2011,2008-05-29,2008-05-29,16.4192,16.4192,,,0,1,6000000,0,TX,0,0,0,1,0,cleantech,0,0,0,0,0,0,0,0,0,1,c:24040,0,0,0,1,0,0,3.0,0,0
708,CA,37.424298,-122.139809,94306,c:40762,Palo Alto,Palo Alto CA 94306,Immunet Corporation,1,2008-07-01,,2009-11-01,2009-11-01,1.337,1.337,1.3479,1.3479,3,1,2000000,1,CA,1,0,0,0,0,software,1,0,0,0,0,0,0,0,0,0,c:40762,0,0,1,0,0,0,2.0,1,1
1049,TX,30.280148,-97.749908,78701,c:75008,Austin,Austin TX 78701,CopperEgg Corporation,1,2010-06-01,,2011-07-12,2012-05-08,1.1123,1.937,0.0,1.1123,3,2,4100000,2,TX,0,0,0,1,0,enterprise,0,0,0,1,0,0,0,0,0,0,c:75008,0,0,1,0,0,0,1.5,1,1
330,CA,37.40047,-122.072981,94041,c:197,Mountain View,,Wink,1,2004-08-19,,2005-01-01,2005-01-01,0.3699,0.3699,1.9507,8.3178,5,1,6200000,4,CA,1,0,0,0,0,search,0,0,0,0,0,0,0,0,0,1,c:197,0,0,1,0,0,0,2.0,1,1
544,CA,37.767575,-122.411157,94103,c:3087,San Francisco,,PopularMedia,1,2003-01-01,,2007-02-01,2008-07-28,4.0877,5.5753,4.0027,4.0027,8,2,12250000,1,CA,1,0,0,0,0,advertising,0,0,0,0,1,0,0,0,0,0,c:3087,0,0,0,1,1,0,2.5,1,1
383,CA,37.779281,-122.419236,94105,c:23098,San Francisco,San Francisco CA 94105,Miyowa,1,2003-04-14,,2006-09-04,2008-05-08,3.3945,5.0712,5.7233,8.7342,3,2,11725600,2,CA,1,0,0,0,0,mobile,0,0,1,0,0,0,0,0,0,0,c:23098,0,0,1,1,0,0,2.0,1,1
802,MA,42.504817,-71.195611,1803,c:45792,Burlington,Burlington MA 1803,Intrusic,0,2001-01-01,2/19/2007,2005-04-25,2006-10-30,4.3151,5.8301,,,1,2,16000000,0,MA,0,0,1,0,0,software,1,0,0,0,0,0,0,0,0,0,c:45792,0,0,1,1,0,0,3.0,1,0
646,WA,47.603832,-122.330062,98103,c:37215,Seattle,Seattle WA 98103,Dashwire,1,2006-08-11,,2009-01-31,2010-12-28,2.4767,4.3836,3.3945,4.9863,10,3,5056559,2,WA,0,0,0,0,1,mobile,0,0,1,0,0,0,0,0,0,0,c:37215,1,0,1,0,0,0,1.6667,1,1
552,CA,37.780883,-122.395257,94107,c:314,San Francisco,,Reddit,1,2005-01-01,,2005-06-01,2005-06-01,0.4137,0.4137,6.8329,8.874,9,1,100000,3,CA,1,0,0,0,0,web,0,1,0,0,0,0,0,0,0,0,c:314,0,1,0,0,0,0,1.0,1,1
697,CA,37.779281,-122.419236,94108,c:3991,San Francisco,San Francisco CA 94108,Pure Digital Technologies,1,2001-09-01,,2004-01-01,2008-08-18,2.3342,6.9671,4.0027,8.3014,11,3,68200000,3,CA,1,0,0,0,0,hardware,0,0,0,0,0,0,0,0,0,1,c:3991,1,1,0,0,0,0,4.0,1,1
239,CA,37.789429,-122.276524,94501,c:16892,Alameda,Alameda CA 94501,Voxify,1,2001-01-01,,2005-02-01,2010-04-21,4.0877,9.3068,6.0027,6.0027,5,3,33000000,1,CA,1,0,0,0,0,enterprise,0,0,0,1,0,0,0,0,0,0,c:16892,1,0,0,1,0,1,3.6667,1,1
672,NC,35.986906,-78.896718,27701,c:38460,Durham,Durham NC 27701,EvoApp,0,2009-01-01,1/1/2013,2010-10-15,2012-04-20,1.7863,3.3014,2.0822,2.3288,8,3,3352194,2,NC,0,0,0,0,1,analytics,0,0,0,0,0,0,0,0,0,1,c:38460,0,1,1,0,0,0,9.5,0,0
996,NY,40.750519,-73.993494,10001,c:64959,New York,New York NY 10001,Visual Revenue,1,2010-03-01,,2011-07-28,2012-01-26,1.4082,1.9068,-0.1616,1.8384,5,2,2212000,2,NY,0,1,0,0,0,analytics,0,0,0,0,0,0,0,0,0,1,c:64959,0,1,1,0,0,0,3.0,1,1
634,CA,37.484347,-122.225803,94063,c:36484,Redwood City,Redwood City CA 94063,Calibra Medical,1,2004-01-01,,2009-11-24,2011-04-15,5.9014,7.2904,,,1,4,19800000,0,CA,1,0,0,0,0,biotech,0,0,0,0,0,0,0,1,0,0,c:36484,1,0,0,0,0,1,5.0,1,1
825,CA,37.566009,-122.321646,94401,c:47270,San Mateo,San Mateo CA 94401,Offermatic,0,2010-02-01,6/1/2013,2010-12-01,2011-03-09,0.8301,1.0986,1.1014,1.1616,6,2,4500000,2,CA,1,0,0,0,0,web,0,1,0,0,0,0,0,0,0,0,c:47270,0,1,1,0,0,0,3.0,1,0
263,MA,42.2960173,-71.2128734,2494,c:17433,Needham,,HiWired,1,2004-01-01,,2008-01-01,2008-01-02,4.0027,4.0055,4.0027,4.0027,2,2,14000000,1,MA,0,0,1,0,0,software,1,0,0,0,0,0,0,0,0,0,c:17433,1,0,0,1,0,0,1.5,1,1
119,FL,26.106273,-80.41894,33327,c:144687,Weston,Weston FL 33327,DateMyFamily.com,0,2011-11-11,1/1/2013,2011-12-01,2011-12-01,0.0548,0.0548,0.0685,0.4,4,1,100000,2,FL,0,0,0,0,1,social,0,0,0,0,0,0,0,0,0,1,c:144687,0,1,0,0,0,0,1.0,0,0
1004,CA,37.4027811,-122.1441615,94304,c:6592,Palo Alto,,Hyperic,1,2004-01-01,,2006-05-10,2007-06-05,2.3562,3.4274,3.0027,5.3425,4,2,9900000,2,CA,1,0,0,0,0,software,1,0,0,0,0,0,0,0,0,0,c:6592,0,0,1,1,0,0,2.0,1,1
610,CA,37.779281,-122.419236,94104,c:34545,San Francisco,San Francisco CA 94104,Optimal,1,2008-01-01,,2008-01-01,2013-01-22,0.0,5.063,5.0055,5.7945,10,3,7600000,2,CA,1,0,0,0,0,advertising,0,0,0,0,1,0,0,0,0,0,c:34545,0,0,1,1,0,0,5.0,1,1
246,CA,34.430786,-119.715074,93101,c:17030,Santa Barbara,,SendMeHome.com,0,2008-07-01,6/4/2012,2008-07-01,2008-07-01,0.0,0.0,0.737,0.737,2,1,50000,1,CA,1,0,0,0,0,games_video,0,0,0,0,0,1,0,0,0,0,c:17030,0,1,0,0,0,0,2.0,0,0
88,CA,37.448944,-122.161415,94301,c:13358,Palo Alto,,Q-magic,0,2007-02-01,11/29/2011,2007-01-01,2007-01-01,-0.0849,-0.0849,,,3,1,650000,0,CA,1,0,0,0,0,public_relations,0,0,0,0,0,0,0,0,0,1,c:13358,0,1,0,0,0,0,1.0,0,0
22,CA,34.005914000000004,-118.488129,90034,c:10610,Los Angeles,,Geodelic Systems,0,2008-01-01,1/1/2011,2008-12-01,2010-09-23,0.9178,2.7288,2.4164,2.7288,8,3,10500000,3,CA,1,0,0,0,0,mobile,0,0,1,0,0,0,0,0,0,0,c:10610,1,0,1,1,0,0,2.0,1,0
1014,CA,34.019657,-118.487549,90401,c:68470,Santa Monica,Santa Monica CA 90401,BlockBeacon,1,2012-01-01,,2012-06-21,2012-06-21,0.4712,0.4712,0.0,0.9178,12,1,500000,2,CA,1,0,0,0,0,web,0,1,0,0,0,0,0,0,0,0,c:68470,0,1,0,0,0,0,1.0,0,1
8,CA,37.390501,-122.081151,94041,c:10197,Mountain View,,PostPath,1,2003-01-01,,2004-12-07,2007-01-16,1.9342,4.0438,2.0027,10.189,2,2,24300000,3,CA,1,0,0,0,0,web,0,1,0,0,0,0,0,0,0,0,c:10197,0,0,0,1,1,0,2.5,1,1
595,CA,37.386778,-121.966277,95054,c:33771,Santa Clara,Santa Clara CA 95054,Attune Systems,0,1999-01-01,2/12/2009,2006-06-27,2006-11-14,7.4904,7.874,7.0055,7.0055,6,2,18000000,1,CA,1,0,0,0,0,hardware,0,0,0,0,0,0,0,0,0,1,c:33771,1,0,0,1,0,0,4.0,1,0
757,CA,37.779507,-122.39071,94107,c:437,San Francisco,,TokBox,1,2007-05-01,,2007-12-26,2010-11-15,0.6548,3.5452,3.8438,6.5589,27,3,26000000,5,CA,1,0,0,0,0,messaging,0,0,0,0,0,0,0,0,0,1,c:437,0,0,1,1,1,0,3.6667,1,1
175,CA,37.391642,-122.09393500000002,94040,c:15870,Mountain View,Mountain View CA 94040,Avega Systems,0,2005-01-01,1/1/2012,2007-04-01,2010-01-13,2.2466,5.0356,,,2,2,9500000,0,CA,1,0,0,0,0,hardware,0,0,0,0,0,0,0,0,0,1,c:15870,1,0,0,1,0,0,3.0,1,0
336,MD,39.2328783,-76.8204666,Maryland 21045,c:20062,Columbia,,Heartscape,1,2000-01-01,10/15/2009,2007-04-24,2007-04-24,7.3151,7.3151,5.0055,5.0055,6,1,16980999,1,MD,0,0,0,0,1,biotech,0,0,0,0,0,0,0,1,0,0,c:20062,0,0,0,1,0,0,1.0,1,1
493,CA,37.419819,-122.09018799999998,94043,c:281,Mountain View,,PeerMe,0,2004-01-01,2/3/2009,2005-01-01,2005-01-01,1.0027,1.0027,1.1644,3.5699,2,1,5000000,2,CA,1,0,0,0,0,games_video,0,0,0,0,0,1,0,0,0,0,c:281,0,0,1,0,0,0,3.0,0,0
333,WA,47.657943,-117.421226,99202,c:19869,SPOKANE,SPOKANE WA 99202,Pacinian,0,2007-04-01,1/1/2012,2008-12-01,2008-12-01,1.6712,1.6712,,,3,1,350000,0,WA,0,0,0,0,1,hardware,0,0,0,0,0,0,0,0,0,1,c:19869,1,0,0,0,0,0,1.0,0,0
1091,MA,42.485691,-71.19861999999998,1803,c:8251,Burlington,,neoSaej,0,2006-01-01,6/1/2013,2007-03-29,2010-12-21,1.2384,4.9726,1.0,1.0,1,5,13130000,1,MA,0,0,1,0,0,web,0,1,0,0,0,0,0,0,0,0,c:8251,1,0,1,0,0,0,2.0,1,0
962,WA,39.78373,-100.445882,98104,c:60243,Seattle,Seattle WA 98104,Kiha Software,0,2008-01-01,8/1/2011,2010-10-28,2010-10-28,2.8247,2.8247,0.0,2.8219,1,1,20000000,2,WA,0,0,0,0,1,software,1,0,0,0,0,0,0,0,0,0,c:60243,0,0,1,0,0,0,1.0,0,0
867,MA,42.372912,-71.118999,2138,c:513,Cambridge,,Vlingo,1,2006-06-01,,2006-12-01,2009-09-16,0.5014,3.2959,2.0685,6.9973,18,3,26500000,4,MA,0,0,1,0,0,mobile,0,0,1,0,0,0,0,0,0,0,c:513,1,0,1,1,0,0,2.0,1,1
321,MA,42.432106,-71.453968,1754,c:19483,Maynard,Maynard MA 1754,Tizor Systems,1,2002-01-01,,2005-09-12,2006-02-07,3.6986,4.1041,,,4,2,15000000,0,MA,0,0,1,0,0,enterprise,0,0,0,1,0,0,0,0,0,0,c:19483,0,0,0,1,0,0,5.0,1,1
842,MD,39.414219,-77.410927,21703,c:49341,Frederick,Frederick MD 21703,Cerona Networks,0,2002-01-01,1/18/2012,2006-04-21,2006-04-21,4.3041,4.3041,,,0,1,2600000,0,MD,0,0,0,0,1,public_relations,0,0,0,0,0,0,0,0,0,1,c:49341,0,0,1,0,0,0,1.0,0,0
561,CA,37.54827,-121.988572,94538,c:31764,Fremont,Fremont CA 94538,Oorja Protonics,0,2004-01-01,10/16/2012,2006-05-25,2010-01-11,2.3973,6.0329,,,1,4,21470000,0,CA,1,0,0,0,0,cleantech,0,0,0,0,0,0,0,0,0,1,c:31764,0,0,1,1,0,0,3.5,1,0
876,TX,30.280148,-97.749908,78701,c:51969,Austin,Austin TX 78701,Hurricane Party,0,2010-05-01,7/1/2012,2010-05-01,2010-05-01,0.0,0.0,0.274,0.863,5,1,20000,2,TX,0,0,0,1,0,mobile,0,0,1,0,0,0,0,0,0,0,c:51969,0,1,0,0,0,0,1.0,0,0
75,CA,37.384239,-122.012475,94085,c:1284,Sunnyvale,,Minekey,0,2005-01-01,8/18/2012,2006-12-01,2007-08-01,1.9151,2.5808,2.0,6.9178,10,2,3600000,3,CA,1,0,0,0,0,web,0,1,0,0,0,0,0,0,0,0,c:1284,0,1,1,0,0,0,1.0,0,0
404,NY,40.728425,-73.999882,10012,c:24029,New York,New York NY 10012,Blip,1,2005-05-01,,2006-03-01,2012-07-30,0.8329,7.2521,8.0055,8.4,23,7,27300000,4,NY,0,1,0,0,0,games_video,0,0,0,0,0,1,0,0,0,0,c:24029,0,1,1,1,1,1,2.0,1,1
226,CA,37.779281,-122.419236,94105,c:166772,San Francisco,San Francisco CA 94105,Fabkids,1,2012-01-01,,2012-08-02,2012-08-02,0.5863,0.5863,1.0493,1.0493,8,1,2600000,1,CA,1,0,0,0,0,ecommerce,0,0,0,0,0,0,1,0,0,0,c:166772,0,0,1,0,0,0,2.0,0,1
954,CA,37.424298,-122.139809,94306,c:59709,Palo Alto,Palo Alto CA 94306,CafeBots,0,2010-01-01,10/1/2010,2010-10-21,2010-10-21,0.8027,0.8027,0.0,1.411,5,1,5000000,2,CA,1,0,0,0,0,web,0,1,0,0,0,0,0,0,0,0,c:59709,0,0,1,0,0,0,1.0,1,0
50,CA,32.897274,-117.201076,92121,c:11888,San Diego,,Avaak,1,2004-01-01,,2008-10-03,2010-03-22,4.7589,6.2247,3.6685,6.2247,2,2,17000000,2,CA,1,0,0,0,0,mobile,0,0,1,0,0,0,0,0,0,0,c:11888,0,0,1,1,0,0,3.5,1,1
172,ME,43.643967,-70.923675,4095,c:158294,West Newfield,West Newfield ME 4095,Newfield Design,0,2008-01-01,6/1/2013,2012-05-14,2012-05-14,4.3699,4.3699,,,0,1,662000,0,ME,0,0,0,0,1,manufacturing,0,0,0,0,0,0,0,0,0,1,c:158294,0,0,1,0,0,0,3.0,0,0
938,NY,40.73901,-73.997259,10011,c:58550,New York,New York NY 10011,Savored,1,2010-01-01,,2010-01-01,2011-01-10,0.0,1.0247,2.0055,2.7315,12,2,3750000,2,NY,0,1,0,0,0,hospitality,0,0,0,0,0,0,0,0,0,1,c:58550,0,1,1,0,0,0,4.0,1,1
698,CA,37.764726,-122.394523,94107,c:4,San Francisco,,Digg,1,2004-10-11,,2005-10-01,2011-07-12,0.9726,6.7534,5.2466,9.1534,57,4,45000000,8,CA,1,0,0,0,0,news,0,0,0,0,0,0,0,0,0,1,c:4,0,0,1,1,1,1,4.6667,1,1
128,NY,40.74731129999999,-73.95491820000002,11101,c:1475,Long Island City,,Songza,1,2007-11-01,,2011-09-19,2013-09-10,3.8849,5.863,2.8356,6.1123,9,2,6700000,4,NY,0,1,0,0,0,music,0,0,0,0,0,0,0,0,0,1,c:1475,1,0,0,0,0,0,8.0,1,1
386,CA,37.536402,-122.325129,94065,c:23134,Redwood City,,Bigfoot Networks,1,2006-01-01,,2006-03-06,2009-11-17,0.1753,3.8795,2.0,4.474,12,3,20750000,2,CA,1,0,0,0,0,hardware,0,0,0,0,0,0,0,0,0,1,c:23134,1,0,1,1,0,0,2.3333,1,1
790,CA,37.786942,-122.401245,94105,c:453,San Francisco,,Kongregate,1,2006-01-01,,2007-03-01,2013-07-02,1.1616,7.5041,,,5,4,19000000,0,CA,1,0,0,0,0,games_video,0,0,0,0,0,1,0,0,0,0,c:453,0,0,1,1,1,0,2.0,1,1
526,CA,37.778613,-122.395289,94107,c:30,San Francisco,,Powerset,1,2006-10-01,,2006-05-01,2007-06-01,-0.4192,0.6658,,,20,3,22500000,0,CA,1,0,0,0,0,search,0,0,0,0,0,0,0,0,0,1,c:30,1,0,1,0,0,0,4.0,1,1
496,CA,37.792394,-122.402349,94104,c:282,San Francisco,,Kiptronic,1,2005-05-01,,2005-11-01,2008-06-05,0.5041,3.0986,2.2384,3.7562,10,3,7300000,3,CA,1,0,0,0,0,advertising,0,0,0,0,1,0,0,0,0,0,c:282,0,1,1,1,0,0,2.0,1,1
986,WA,39.78373,-100.445882,98104,c:6340,Seattle,Seattle WA 98104,Cozi Group,0,2005-03-03,1/31/2013,2005-12-01,2012-12-27,0.7479,7.8247,4.3151,5.9041,16,7,26390819,3,WA,0,0,0,0,1,web,0,1,0,0,0,0,0,0,0,0,c:6340,1,0,1,1,0,0,1.3333,1,0
1140,WA,47.582658,-122.135282,98007,c:9599,Bellevue,,Likewise Software,1,2004-11-01,,2009-04-30,2009-04-30,4.4959,4.4959,,,4,1,10000000,0,WA,0,0,0,0,1,software,1,0,0,0,0,0,0,0,0,0,c:9599,0,0,0,0,1,0,3.0,1,1
988,NY,40.73901,-73.997259,10011,c:63621,NY,NY NY 10011,Lifestander,0,2010-09-01,6/1/2013,2010-10-02,2010-10-02,0.0849,0.0849,0.0,0.0,1,1,31000,1,NY,0,1,0,0,0,web,0,1,0,0,0,0,0,0,0,0,c:63621,0,1,0,0,0,0,2.0,0,0
425,CA,37.451026,-122.18676,94025,c:251,Menlo Park,,Jaxtr,1,2005-10-01,,2007-07-01,2008-06-23,1.7479,2.7288,1.7479,6.1452,16,3,21500000,4,CA,1,0,0,0,0,mobile,0,0,1,0,0,0,0,0,0,0,c:251,0,0,1,1,0,0,3.3333,1,1
64,CO,39.540323,-104.857271,80112,c:12285,Englewood,,MX Logic,1,2002-01-01,,2006-11-07,2006-11-07,4.8521,4.8521,6.5863,6.5863,5,1,4000000,1,CO,0,0,0,0,1,security,0,0,0,0,0,0,0,0,0,1,c:12285,0,0,0,0,0,0,5.0,1,1
1119,CA,33.020832,-117.077311,90275,c:885,Solana Beach,,Metaplace,1,2006-07-01,,2007-01-01,2010-03-15,0.5041,3.7068,2.9863,4.0219,5,3,9400000,4,CA,1,0,0,0,0,games_video,0,0,0,0,0,1,0,0,0,0,c:885,1,0,1,1,0,0,4.0,1,1
247,NY,37.402802,-122.117418,10004,c:1704,New York,,TravelMuse,1,2007-04-16,,2007-05-01,2009-06-01,0.0411,2.1288,1.7562,4.874,9,3,5600000,4,NY,0,1,0,0,0,web,0,1,0,0,0,0,0,0,0,0,c:1704,0,0,1,1,0,0,2.0,1,1
955,CA,37.782101,-122.389519,94105,c:5986,San Francisco,,Jambool,1,2006-08-01,,2008-08-01,2009-08-17,2.0027,3.0466,3.5836,5.4767,9,2,6000000,2,CA,1,0,0,0,0,finance,0,0,0,0,0,0,0,0,0,1,c:5986,0,0,1,1,0,0,2.5,1,1
399,GA,33.7862629,-84.3877936,30309,c:23756,NW Atlanta,,Zipcar,1,2000-10-31,,2002-12-20,2010-12-15,2.137,10.1288,10.4164,12.1863,35,4,60704370,3,GA,0,0,0,0,1,transportation,0,0,0,0,0,0,0,0,0,1,c:23756,1,0,0,1,0,1,2.0,1,1
745,CA,37.78227879999999,-122.392978,94107,c:43172,San Francisco,,Hitpost,1,2009-04-01,,2010-01-01,2012-04-26,0.7534,3.0712,3.9178,4.5041,16,3,2000000,2,CA,1,0,0,0,0,sports,0,0,0,0,0,0,0,0,0,1,c:43172,0,1,0,0,0,0,3.6667,1,1
345,CA,37.778551,-122.391686,94107,c:20637,San Francisco,,Home-Account,1,2008-11-01,,2009-04-16,2009-07-16,0.4548,0.7041,0.5808,1.737,5,2,1000000,3,CA,1,0,0,0,0,finance,0,0,0,0,0,0,0,0,0,1,c:20637,1,0,1,0,0,0,5.5,1,1
335,PA,40.012771,-75.239234,19004,c:20033,Bala Cynwyd,,PayParade Pictures,0,2007-10-17,1/27/2012,2008-12-01,2009-03-13,1.126,1.4055,0.7918,1.3973,3,2,200000,2,PA,0,0,0,0,1,games_video,0,0,0,0,0,1,0,0,0,0,c:20033,0,1,1,0,0,0,2.0,1,0
94,CA,37.628328,-122.420814,94066,c:13504,San Bruno,,Planet Metrics,0,2007-01-01,2/7/2011,2008-11-12,2008-11-12,1.8658,1.8658,0.0,1.863,2,1,2300000,2,CA,1,0,0,0,0,cleantech,0,0,0,0,0,0,0,0,0,1,c:13504,0,0,1,0,0,0,2.0,1,0
566,CA,37.7885714,-122.40359850000002,94108,c:3185,San Francisco,,kwiry,0,2006-01-01,4/23/2009,2008-03-20,2008-03-20,2.2164,2.2164,0.7479,3.4164,5,1,1000000,4,CA,1,0,0,0,0,mobile,0,0,1,0,0,0,0,0,0,0,c:3185,0,0,1,0,0,0,1.0,1,0
1034,CA,37.779624,-122.391236,94107,c:725,San Francisco,,imeem,1,2003-11-01,,2004-09-01,2009-08-01,0.8356,5.7534,4.9781,7.0301,13,5,24750000,3,CA,1,0,0,0,0,music,0,0,0,0,0,0,0,0,0,1,c:725,1,1,1,1,0,0,2.4,1,1
107,IL,42.055849,-87.694664,60201,c:13921,Evanston,,Amadesa,0,2005-05-15,7/1/2013,2007-12-03,2011-10-05,2.5534,6.3945,6.6356,6.6356,15,2,12800000,1,IL,0,0,0,0,1,software,1,0,0,0,0,0,0,0,0,0,c:13921,0,0,1,1,0,0,2.0,1,0
411,CA,37.4305755,-122.0971389,94043,c:24549,Mountain View,,Cast Iron Systems,1,2001-01-01,,2005-03-28,2007-07-29,4.2384,6.5753,7.0027,7.0027,10,2,30500000,1,CA,1,0,0,0,0,enterprise,0,0,0,1,0,0,0,0,0,0,c:24549,0,0,0,0,0,1,4.5,1,1
952,CA,33.133524,-117.254593,92010,c:5952,Carlsbad,,Aptera,0,2003-01-01,12/1/2011,2008-07-25,2011-07-13,5.5671,8.5342,5.6055,7.8384,3,3,36300000,2,CA,1,0,0,0,0,automotive,0,0,0,0,0,0,0,0,0,1,c:5952,1,0,0,0,1,0,1.5,1,0
746,CA,37.779281,-122.419236,94111,c:43183,San Francisco,San Francisco CA 94111,RentJuice,1,2008-01-01,,2010-03-04,2011-01-31,2.1726,3.0849,3.0877,4.7753,7,3,6693782,3,CA,1,0,0,0,0,real_estate,0,0,0,0,0,0,0,0,0,1,c:43183,1,0,0,0,0,0,1.6667,1,1
723,CA,32.901049,-117.192656,92121,c:41968,San Diego,San Diego CA 92121,Verari Systems,0,1996-01-01,1/1/2010,2007-06-05,2007-06-05,11.4329,11.4329,,,1,1,20000000,0,CA,1,0,0,0,0,hardware,0,0,0,0,0,0,0,0,0,1,c:41968,0,0,0,0,1,0,5.0,1,0
903,CA,37.316653,-122.05074,95014,c:5485,Cupertino,,Parascale,1,2005-01-01,,2008-06-23,2008-06-23,3.4767,3.4767,3.6849,5.6274,8,1,11370000,3,CA,1,0,0,0,0,network_hosting,0,0,0,0,0,0,0,0,0,1,c:5485,0,0,1,0,0,0,2.0,1,1
1123,CA,34.090368,-118.393064,90069,c:9,West Hollywood,,Geni,1,2006-06-01,,2007-01-01,2009-01-19,0.5863,2.6384,3.5425,6.0712,13,3,16500000,4,CA,1,0,0,0,0,web,0,1,0,0,0,0,0,0,0,0,c:9,0,0,1,1,1,0,1.3333,1,1
148,CA,37.794891,-122.397901,94111,c:15129,San Franciso,,Zentact,0,2008-09-01,1/1/2012,2008-09-01,2008-09-01,0.0,0.0,3.411,3.411,3,1,250000,1,CA,1,0,0,0,0,network_hosting,0,0,0,0,0,0,0,0,0,1,c:15129,0,1,0,0,0,0,3.0,0,0
597,NY,40.70438220000001,-73.98657170000001,10010,c:339,New York,,Outside.in,1,2006-08-01,,2007-02-01,2009-12-08,0.5041,3.3562,3.4219,7.2274,9,5,14400000,5,NY,0,1,0,0,0,web,0,1,0,0,0,0,0,0,0,0,c:339,0,1,1,1,0,0,5.8,1,1
1145,NY,40.756054,-73.986951,10001,c:967,New York,,Salesforce Buddy Media,1,2007-09-01,,2007-09-01,2011-08-15,0.0,3.9562,4.7616,5.1507,24,5,90000000,3,NY,0,1,0,0,0,enterprise,0,0,0,1,0,0,0,0,0,0,c:967,1,0,1,1,1,1,3.8,1,1
515,CA,37.797435,-122.403175,94017,c:2925,San Francisco,,Vizu Corporation,1,2005-02-14,,2006-02-20,2012-04-09,1.0164,7.1534,5.6959,8.1781,10,4,13075000,2,CA,1,0,0,0,0,advertising,0,0,0,0,1,0,0,0,0,0,c:2925,0,0,1,1,0,0,4.0,1,1
1113,CA,37.388077,-122.08316,94041,c:86,Mountain View,,Zing Systems,1,2007-06-01,,2006-12-01,2007-01-01,-0.4986,-0.4137,-0.4986,5.7699,10,2,26000000,4,CA,1,0,0,0,0,games_video,0,0,0,0,0,1,0,0,0,0,c:86,0,0,1,0,1,0,2.5,1,1
1019,MA,42.504817,-71.195611,1803,c:69834,Burlington,Burlington MA 1803,DynamicOps,1,2008-01-01,,2011-02-28,2011-09-09,3.1616,3.6904,3.0027,4.5041,6,2,16300000,2,MA,0,0,1,0,0,enterprise,0,0,0,1,0,0,0,0,0,0,c:69834,0,0,0,1,0,0,2.0,1,1
776,TX,30.409765000000004,-97.75101,78759,c:44434,Austin,Austin TX 78759,Movero Technology,1,2003-01-01,6/1/2013,2007-06-14,2010-03-23,4.4521,7.2274,7.0055,7.0055,5,2,5992316,1,TX,0,0,0,1,0,enterprise,0,0,0,1,0,0,0,0,0,0,c:44434,1,0,1,0,0,0,2.0,0,1
705,CA,32.962655,-117.189656,92130,c:40417,San Diego,San Diego CA 92130,Elevation Pharmaceuticals,1,2007-01-01,,2010-01-21,2012-01-04,3.0575,5.011,,,2,4,89400001,0,CA,1,0,0,0,0,biotech,0,0,0,0,0,0,0,1,0,0,c:40417,1,0,1,1,0,0,4.3333,1,1
311,CA,37.4233698,-122.09868590000002,94303,c:18897,Palo Alto,,Punch Entertainment,0,2005-05-10,4/16/2012,2006-02-27,2006-02-27,0.8027,0.8027,5.3151,5.3151,4,1,1200000,1,CA,1,0,0,0,0,software,1,0,0,0,0,0,0,0,0,0,c:18897,0,0,1,0,0,0,1.0,0,0
753,NY,40.729839,-73.991781,10003,c:43416,New York,New York NY 10003,Stickybits,0,2009-01-01,8/1/2012,2010-03-09,2010-05-19,1.1836,1.3781,1.3288,3.1096,7,2,1900000,2,NY,0,1,0,0,0,web,0,1,0,0,0,0,0,0,0,0,c:43416,0,1,1,0,0,0,2.5,1,0
398,CA,37.779281,-122.419236,94108,c:23692,San Francisco,San Francisco CA 94108,Ecast,0,1999-01-01,2/12/2012,2008-05-07,2011-05-26,9.3534,12.4055,7.0055,11.3836,9,3,30300000,2,CA,1,0,0,0,0,games_video,0,0,0,0,0,1,0,0,0,0,c:23692,1,0,0,0,0,1,4.5,1,0
495,NY,40.730646,-73.986614,10013,c:28162,New York,New York NY 10013,lifeIO,0,2006-08-29,3/3/2012,2008-08-29,2008-08-29,2.0027,2.0027,,,4,1,500000,0,NY,0,1,0,0,0,web,0,1,0,0,0,0,0,0,0,0,c:28162,0,1,0,0,0,0,5.0,0,0
174,CA,34.049767,-118.459387,90405,c:1587,Santa Monica,,EdgeCast Networks,1,2006-08-01,,2006-08-01,2013-07-18,0.0,6.9671,6.4247,7.3562,19,5,74000000,2,CA,1,0,0,0,0,network_hosting,0,0,0,0,0,0,0,0,0,1,c:1587,0,1,1,1,1,1,1.75,1,1
467,TX,32.945353999999995,-96.708874,75081,c:26988,Richardson,Richardson TX 75081,Sirific Wireless,1,2000-01-01,,2007-02-12,2007-02-12,7.1205,7.1205,,,3,1,18800000,0,TX,0,0,0,1,0,semiconductor,0,0,0,0,0,0,0,0,0,1,c:26988,0,0,0,0,1,0,7.0,1,1
455,MI,42.8138649,-86.02384599999998,49464,c:26390,Zeeland,,Revetto,0,2009-01-01,5/18/2009,2009-05-01,2009-05-01,0.3288,0.3288,-0.4192,-0.4192,3,1,20000,1,MI,0,0,0,0,1,web,0,1,0,0,0,0,0,0,0,0,c:26390,0,1,0,0,0,0,1.0,0,0
579,VA,38.969532,-77.385948,20170,c:32094,Herndon,Herndon VA 20170,ZoomSafer,1,2009-01-01,,2009-03-01,2011-03-07,0.1616,2.1781,1.5096,2.1781,3,4,3350000,2,VA,0,0,0,0,1,mobile,0,0,1,0,0,0,0,0,0,0,c:32094,0,1,1,1,0,0,1.5,0,1
683,NJ,40.944543,-74.075419,7652,c:39364,Paramus,Paramus NJ 7652,AkaRx,1,2005-01-01,,2010-01-07,2010-01-07,5.0192,5.0192,,,1,1,26100000,0,NJ,0,0,0,0,1,biotech,0,0,0,0,0,0,0,1,0,0,c:39364,1,0,0,0,0,0,2.0,1,1
872,PA,40.441694,-79.990086,15213,c:51623,Pittsburgh,Pittsburgh PA 15213,Lama Lab,0,2009-01-01,6/1/2013,2010-05-31,2011-07-08,1.411,2.5151,,,0,2,1213066,0,PA,0,0,0,0,1,enterprise,0,0,0,1,0,0,0,0,0,0,c:51623,1,0,0,0,0,0,1.0,1,0
1116,CA,37.425359,-122.1389633,94306,c:8676,Palo Alto,,Buysight,1,2008-01-01,,2008-11-04,2012-03-21,0.8438,4.2219,0.7616,4.9288,18,3,24030000,3,CA,1,0,0,0,0,advertising,0,0,0,0,1,0,0,0,0,0,c:8676,0,0,1,1,0,0,3.6667,1,1
1063,CA,37.764169,-122.402021,94110,c:767,San Francisco,,TripIt,1,2006-10-01,,2007-04-01,2010-03-04,0.4986,3.4247,1.9863,5.9616,14,3,13100000,5,CA,1,0,0,0,0,travel,0,0,0,0,0,0,0,0,0,1,c:767,0,1,0,1,1,0,1.6667,1,1
959,NY,40.757929,-73.985506,10010,c:6011,New York,,Pinch Media,1,2008-04-01,,2008-05-01,2010-01-06,0.0822,1.7671,0.3014,5.0082,6,3,560001,5,NY,0,1,0,0,0,software,1,0,0,0,0,0,0,0,0,0,c:6011,1,1,0,0,0,0,3.5,1,1
563,MN,44.9773,-93.265469,55311,c:31794,Minneapolis,Minneapolis MN 55311,Enstratius,1,2009-01-01,,2011-11-07,2011-11-07,2.8493,2.8493,2.9068,4.1918,7,1,3500000,3,MN,0,0,0,0,1,enterprise,0,0,0,1,0,0,0,0,0,0,c:31794,0,0,1,0,0,0,2.0,1,1
1,MA,42.368633,-71.075305,2210,c:10054,Boston,,Jumptap,1,2005-01-01,,2005-03-01,2012-07-02,0.1616,7.5041,7.0521,8.6192,45,7,121500000,3,MA,0,0,1,0,0,mobile,0,0,1,0,0,0,0,0,0,0,c:10054,1,0,1,1,1,1,4.5,1,1
111,CA,37.40909600000001,-121.94319099999998,95134,c:14036,San Jose,,WiChorus,1,2005-01-01,,2005-12-22,2008-11-04,0.9726,3.8438,2.0,2.0,18,4,42500000,1,CA,1,0,0,0,0,mobile,0,0,1,0,0,0,0,0,0,0,c:14036,1,0,1,1,1,0,2.5,1,1
664,NC,35.996653,-78.90180500000002,27713,c:38123,Durham,Durham NC 27713,Hatteras Networks,1,2000-01-01,,2005-06-08,2006-06-01,5.4384,6.4192,6.0055,6.0055,26,2,36000000,1,NC,0,0,0,0,1,software,1,0,0,0,0,0,0,0,0,0,c:38123,1,0,0,0,0,1,3.5,1,1
229,CA,37.793949,-122.398062,94111,c:16709,San Francisco,,Focus,0,2005-08-01,9/15/2012,2008-03-06,2008-03-06,2.5973,2.5973,2.9178,5.4822,7,1,12170000,2,CA,1,0,0,0,0,enterprise,0,0,0,1,0,0,0,0,0,0,c:16709,0,0,0,0,1,0,3.0,1,0
820,NY,40.730646,-73.986614,10005,c:46901,New York,New York NY 10005,easy2comply (Dynasec),1,2002-01-01,,2007-10-02,2007-10-02,5.7534,5.7534,8.0055,9.8356,4,1,1000000,2,NY,0,1,0,0,0,software,1,0,0,0,0,0,0,0,0,0,c:46901,0,0,1,0,0,0,3.0,1,1
298,CA,38.88521,-76.998641,94107,c:18056,San Francisco,,Socialize,1,2008-07-01,,2011-11-01,2012-06-07,3.337,3.937,-2.4986,4.7205,5,3,1820000,4,CA,1,0,0,0,0,mobile,0,0,1,0,0,0,0,0,0,0,c:18056,0,1,0,0,0,0,1.0,0,1
86,WA,30.6324797,-86.9843446,98033,c:13219,Kirkland,,Clearwire,1,2003-10-01,,2008-05-06,2013-02-27,4.6,9.4164,5.2575,9.7753,19,4,5700000000,2,WA,0,0,0,0,1,mobile,0,0,1,0,0,0,0,0,0,0,c:13219,0,0,0,0,0,0,4.25,1,1
780,TX,32.960431,-96.83026,75001,c:44576,Addison,Addison TX 75001,CREDANT Technologies,1,2001-01-01,,2007-12-20,2007-12-20,6.9699,6.9699,0.0849,11.9699,6,1,5000000,2,TX,0,0,0,1,0,security,0,0,0,0,0,0,0,0,0,1,c:44576,0,0,0,0,1,0,5.0,1,1
905,NY,40.750519,-73.993494,10001,c:55043,New York,New York NY 10001,Exclusively.in,1,2010-01-01,,2010-11-03,2011-05-29,0.8384,1.4055,1.6356,1.6356,4,2,18800000,1,NY,0,1,0,0,0,fashion,0,0,0,0,0,0,0,0,0,1,c:55043,0,0,1,1,0,0,2.5,1,1
565,CA,37.406914,-122.09037,94043,c:31832,Mountain View,Mountain View CA 94043,Avidia,1,2003-01-01,,2005-05-06,2006-05-09,2.3452,3.3534,,,3,2,72300000,0,CA,1,0,0,0,0,advertising,0,0,0,0,1,0,0,0,0,0,c:31832,0,0,0,1,1,0,4.5,1,1
862,CA,33.685697,-117.825982,92612,c:51021,Irvine,Irvine CA 92612,PayDivvy,1,2009-03-06,,2009-01-15,2012-04-27,-0.1369999999999999,3.1452,-2.0932,4.4082,3,3,1310000,4,CA,1,0,0,0,0,social,0,0,0,0,0,0,0,0,0,1,c:51021,0,1,0,0,0,0,1.0,0,1
739,MA,42.479262,-71.152277,1801,c:42672,Woburn,Woburn MA 1801,Octavian,0,2003-01-01,2/1/2011,2005-06-01,2007-10-10,2.4164,4.7753,4.0027,4.0027,2,2,15000000,1,MA,0,0,1,0,0,software,1,0,0,0,0,0,0,0,0,0,c:42672,0,0,1,1,0,0,2.5,1,0
78,NY,40.75166110000001,-73.9843328,10011,c:130,New York,,KickApps,1,2004-03-01,,2006-06-01,2008-11-25,2.2521,4.7397,5.3370000000000015,7.274,22,3,39007789,5,NY,0,1,0,0,0,enterprise,0,0,0,1,0,0,0,0,0,0,c:130,0,0,1,1,1,0,3.0,1,1
829,MA,42.504817,-71.195611,1803,c:47601,Burlington,Burlington MA 1803,Airwide Solutions,1,2004-01-01,,2006-01-25,2006-01-25,2.0685,2.0685,-1.9151,-1.9151,3,1,25000000,1,MA,0,0,1,0,0,software,1,0,0,0,0,0,0,0,0,0,c:47601,0,0,0,0,0,1,5.0,1,1
958,MA,42.360253,-71.058291,2210,c:60087,Boston,Boston MA 2210,Localocracy,1,2009-01-01,,2009-05-01,2011-02-04,0.3288,2.0932,1.3288,2.7534,4,3,172500,2,MA,0,0,1,0,0,web,0,1,0,0,0,0,0,0,0,0,c:60087,0,1,0,0,0,0,1.0,0,1
418,NY,40.730646,-73.986614,10013,c:24853,New York City,New York City NY 10013,Pixable,1,2009-03-12,,2010-11-10,2011-04-22,1.6658,2.1123,2.3041,3.5507,23,2,6100000,2,NY,0,1,0,0,0,social,0,0,0,0,0,0,0,0,0,1,c:24853,0,0,1,1,0,0,1.0,1,1
124,CA,37.862592,-122.493561,94939,c:14608,Larkspur,,mFoundry,1,2004-01-01,,2006-03-21,2011-12-05,2.2192,7.9315,1.6685,9.0904,7,3,40300000,5,CA,1,0,0,0,0,mobile,0,0,1,0,0,0,0,0,0,0,c:14608,1,0,0,1,1,0,4.0,1,1
998,CA,34.098242,-118.35697,90046,c:65389,Los Angeles,Los Angeles CA 90046,Bevvy,0,2011-01-08,1/1/2012,2011-05-20,2011-05-20,0.3616,0.3616,0.3753,0.5425,9,1,100000,3,CA,1,0,0,0,0,ecommerce,0,0,0,0,0,0,1,0,0,0,c:65389,0,1,0,0,0,0,1.0,0,0
281,WA,47.6399006,-122.1914274,98104,c:1767,Seattle,,Livemocha,1,2007-09-01,,2008-01-01,2013-02-25,0.3342,5.4904,2.7507,5.589,14,5,19389998,2,WA,0,0,0,0,1,education,0,0,0,0,0,0,0,0,0,1,c:1767,1,0,1,1,1,0,1.5,1,1
960,CA,37.626166,-122.411025,94066,c:6012,San Bruno,San Bruno CA 94066,IronPort Systems,1,2000-01-01,,2002-06-25,2004-10-25,2.4822,4.8192,5.5863,11.9452,21,2,61500000,3,CA,1,0,0,0,0,hardware,0,0,0,0,0,0,0,0,0,1,c:6012,0,0,0,1,0,1,4.0,1,1
784,CA,37.779281,-122.419236,94108,c:44976,San Francisco,San Francisco CA 94108,Crowdcast,1,2007-01-01,,2010-06-10,2010-06-10,3.4411,3.4411,4.0027,5.7178,6,1,6000000,2,CA,1,0,0,0,0,software,1,0,0,0,0,0,0,0,0,0,c:44976,0,0,1,0,0,0,2.0,1,1
377,MA,42.360253,-71.058291,2114,c:2275,Boston,Boston MA 2114,Where,1,2004-01-01,,2003-12-31,2009-01-01,-0.0027,5.0055,4.9507,7.3726,23,4,19100000,6,MA,0,0,1,0,0,mobile,0,0,1,0,0,0,0,0,0,0,c:2275,0,0,1,1,1,0,2.5,1,1
222,NY,40.756054,-73.986951,10003,c:16611,New York,,Pictela,1,2008-10-17,,2009-01-06,2010-11-06,0.2219,2.0548,0.0411,3.9178,8,4,3499997,3,NY,0,1,0,0,0,advertising,0,0,0,0,1,0,0,0,0,0,c:16611,1,0,1,0,0,0,1.5,1,1
1148,CA,37.502742,-122.211281,94063,c:975,Redwood City,,Grouply,1,2006-03-01,1/1/2012,2007-06-01,2008-01-14,1.2521,1.874,4.7178,5.0959,13,3,2600000,2,CA,1,0,0,0,0,network_hosting,0,0,0,0,0,0,0,0,0,1,c:975,0,1,1,0,0,0,3.6667,1,1
869,CA,37.779281,-122.419236,94103,c:51332,San Francisco,San Francisco CA 94103,Storify,1,2009-12-11,,2009-07-01,2011-02-03,-0.4466,1.1479,3.0603,3.7479,14,3,2023000,2,CA,1,0,0,0,0,web,0,1,0,0,0,0,0,0,0,0,c:51332,0,1,1,0,0,0,1.3333,1,1
439,CA,33.685697,-117.825982,92618,c:25713,Irvine,Irvine CA 92618,Axiom Microdevices,1,2002-01-01,,2007-02-08,2007-02-08,5.1068,5.1068,,,3,1,25000000,0,CA,1,0,0,0,0,semiconductor,0,0,0,0,0,0,0,0,0,1,c:25713,1,0,0,0,0,0,4.0,1,1
630,CA,34.019657,-118.487549,90404,c:36151,Santa Monica,Santa Monica CA 90404,ShoeDazzle,1,2009-03-01,,2009-11-19,2012-10-03,0.7205,3.5945,2.8384,4.0192,17,4,66000000,4,CA,1,0,0,0,0,fashion,0,0,0,0,0,0,0,0,0,1,c:36151,1,0,1,1,1,0,2.3333,1,1
134,NY,40.74929,-73.981328,10016,c:148576,New York,New York NY 10016,LiftDNA,1,2009-09-01,,2011-02-01,2011-02-11,1.4192,1.4466,1.663,1.663,5,2,1000000,1,NY,0,1,0,0,0,advertising,0,0,0,0,1,0,0,0,0,0,c:148576,0,1,0,0,0,0,3.5,0,1
1041,CA,37.424298,-122.139809,94306,c:73586,Palo Alto,Palo Alto CA 94306,Onavo,1,2010-01-01,,2011-05-01,2012-01-24,1.3288,2.063,3.2493,3.7836,11,2,13000000,2,CA,1,0,0,0,0,mobile,0,0,1,0,0,0,0,0,0,0,c:73586,0,0,1,1,0,0,3.0,1,1
806,MA,42.37564,-71.2358,2451,c:46070,Waltham,Waltham MA 2451,Pyxis Mobile,0,1998-01-01,8/1/2012,2005-09-09,2012-01-10,7.6932,14.0329,12.5041,14.0329,3,3,24150000,2,MA,0,0,1,0,0,software,1,0,0,0,0,0,0,0,0,0,c:46070,1,0,1,1,0,0,2.3333,1,0
1107,CA,37.354469,-121.990433,95051,c:84867,Santa Clara,Santa Clara CA 95051,Link_A_Media Devices,0,2004-01-01,1/1/2013,2009-11-02,2012-03-20,5.8411,8.2219,,,4,3,47218498,0,CA,1,0,0,0,0,semiconductor,0,0,0,0,0,0,0,0,0,1,c:84867,1,0,0,0,1,1,3.3333,1,0
57,MA,42.37564,-71.2358,2451,c:12171,Waltham,Waltham MA 2451,Guardium,1,2002-01-01,,2005-08-12,2006-05-17,3.6137,4.3753,0.0,7.9178,1,2,11800000,2,MA,0,0,1,0,0,search,0,0,0,0,0,0,0,0,0,1,c:12171,0,0,0,0,1,1,4.5,1,1
794,NV,35.96544,-115.106579,89052,c:45413,Henderson,Henderson NV 89052,Trooval,0,2008-09-01,2/1/2011,2010-04-07,2010-11-05,1.5973,2.1781,0.0822,0.0822,2,2,2387481,1,NV,0,0,0,0,1,analytics,0,0,0,0,0,0,0,0,0,1,c:45413,1,0,0,0,0,0,1.0,1,0
76,MA,42.346743,-71.07663199999998,2116,c:1285,Boston,,Compete,1,2000-01-01,,2000-11-01,2007-08-01,0.8356,7.5863,11.589,13.5863,35,4,33000000,5,MA,0,0,1,0,0,consulting,0,0,0,0,0,0,0,0,1,0,c:1285,1,0,1,1,1,0,2.5,1,1
97,VA,38.872668,-77.367981,22102,c:13730,McLean,,Rollstream,1,2005-01-01,,2007-09-03,2008-11-18,2.6712,3.8822,4.0027,7.3205,4,2,7500000,3,VA,0,0,0,0,1,software,1,0,0,0,0,0,0,0,0,0,c:13730,0,0,1,1,0,0,1.5,1,1
573,CA,37.404788,-121.940842,95134,c:31936,San Jose,San Jose CA 95134,NeoGuide Systems,1,2000-01-01,,2006-09-29,2006-09-29,6.7479,6.7479,4.0027,4.0027,3,1,25000000,1,CA,1,0,0,0,0,biotech,0,0,0,0,0,0,0,1,0,0,c:31936,0,0,0,0,1,0,1.0,1,1
576,CA,37.386778,-121.966277,95054,c:32011,Santa Clara,Santa Clara CA 95054,Accept Software,1,2002-01-01,,2005-09-16,2010-12-14,3.7096,8.9562,4.0027,4.0027,7,4,25305000,1,CA,1,0,0,0,0,software,1,0,0,0,0,0,0,0,0,0,c:32011,1,0,1,1,1,0,2.0,1,1
368,CA,37.444531,-122.163352,94301,c:22203,Palo Alto,,Milo,1,2008-01-01,,2008-11-01,2009-11-24,0.8356,1.8986,2.3014,3.8356,21,2,4950000,3,CA,1,0,0,0,0,web,0,1,0,0,0,0,0,0,0,0,c:22203,0,1,1,0,0,0,12.5,1,1
19,CA,37.37968400000001,-121.97514,95054,c:10512,Santa Clara,,Mimosa Systems,1,2003-08-29,,2005-12-05,2010-01-12,2.2712,6.3781,,,8,6,53816776,0,CA,1,0,0,0,0,software,1,0,0,0,0,0,0,0,0,0,c:10512,1,0,0,1,1,1,5.0,1,1
18,NY,37.809782,-122.417306,10003,c:105,New York,,Surphace,1,2005-06-01,,2005-04-01,2006-05-01,-0.1671,0.9151,2.674,8.3836,15,2,3500000,4,NY,0,1,0,0,0,web,0,1,0,0,0,0,0,0,0,0,c:105,0,0,1,1,0,0,5.5,1,1
964,CA,37.388869,-122.072353,94041,c:60436,Mountain View,Mountain View CA 94041,Cloudmeter,1,2007-04-01,,2012-04-27,2012-04-27,5.0767,5.0767,4.7562,6.0466,7,1,5000000,2,CA,1,0,0,0,0,enterprise,0,0,0,1,0,0,0,0,0,0,c:60436,0,0,1,0,0,0,1.0,0,1
929,CA,37.384756,-122.087712,94010,c:5779,Burlingame,,Zecter,1,2007-06-01,,2007-06-01,2009-12-14,0.0,2.5397,3.7699,5.9233,9,3,2515000,3,CA,1,0,0,0,0,network_hosting,0,0,0,0,0,0,0,0,0,1,c:5779,1,1,1,0,0,0,1.6667,1,1
602,MA,42.6161515,-71.3258687,1851,c:3413,Lowell,,Dimdim,1,2006-01-01,,2007-02-01,2008-07-01,1.0849,2.4986,2.5205,5.0192,10,2,8400000,3,MA,0,0,1,0,0,web,0,1,0,0,0,0,0,0,0,0,c:3413,0,0,1,1,0,0,2.0,1,1
966,CA,34.01695,-118.451933,90405,c:6049,Santa Monica,,TeleFlip,0,2004-01-01,1/1/2008,2006-08-01,2008-01-01,2.5836,4.0027,2.0301,4.6164,5,2,4900000,3,CA,1,0,0,0,0,mobile,0,0,1,0,0,0,0,0,0,0,c:6049,0,0,1,1,0,0,1.0,1,0
944,WA,47.614422,-122.192337,98004,c:58998,Bellevue,Bellevue WA 98004,MessageGate,0,2001-01-01,7/16/2012,2005-04-18,2005-04-18,4.2959,4.2959,5.0027,5.0027,3,1,5000000,1,WA,0,0,0,0,1,software,1,0,0,0,0,0,0,0,0,0,c:58998,1,0,0,0,0,0,5.0,1,0
682,NY,40.825655,-73.46762199999998,11797,c:39283,Woodbury,Woodbury NY 11797,Cloverleaf Communications,1,2001-01-01,,2005-06-28,2005-06-28,4.4904,4.4904,,,2,1,11000000,0,NY,0,1,0,0,0,public_relations,0,0,0,0,0,0,0,0,0,1,c:39283,0,0,0,0,1,0,3.0,1,1
95,CA,37.381876,-121.95993,95054,c:13681,Santa Clara,,SkyPilot Networks,1,2000-01-01,,2001-01-01,2008-04-01,1.0027,8.2548,,,6,4,68400000,0,CA,1,0,0,0,0,mobile,0,0,1,0,0,0,0,0,0,0,c:13681,1,0,1,0,1,1,4.0,1,1
360,CA,37.779281,-122.419236,94103,c:21762,San Francisco,San Francisco CA 94103,Zencoder,1,2007-01-01,,2010-02-01,2011-04-12,3.0877,4.2795,3.6356,4.6685,7,2,2000000,2,CA,1,0,0,0,0,software,1,0,0,0,0,0,0,0,0,0,c:21762,0,1,1,0,0,0,8.5,1,1
694,NY,40.730646,-73.986614,10010,c:39801,New York,New York NY 10010,Storm Exchange,0,2006-04-01,3/12/2009,2006-12-01,2008-03-04,0.6685,1.926,0.0,0.0,2,2,10800000,1,NY,0,1,0,0,0,enterprise,0,0,0,1,0,0,0,0,0,0,c:39801,1,0,1,0,0,0,2.0,1,0
104,NY,40.729839,-73.991781,10003,c:1388,New York,New York NY 10003,The Huffington Post,1,2005-05-09,,2005-05-01,2010-08-01,-0.0219,5.2329,5.7616,7.4877,31,5,37000000,3,NY,0,1,0,0,0,news,0,0,0,0,0,0,0,0,0,1,c:1388,1,0,1,1,1,0,2.5,1,1
40,CA,37.419347,-122.089639,94043,c:11307,Mountain View,,Exaprotect,1,2004-01-01,,2006-07-10,2006-07-10,2.5233,2.5233,4.0027,9.8849,5,1,7660000,3,CA,1,0,0,0,0,security,0,0,0,0,0,0,0,0,0,1,c:11307,0,0,1,0,0,0,6.0,1,1
659,MA,42.537592,-71.51201,1460,c:37929,Littleton,Littleton MA 1460,Akorri Networks,1,2005-01-01,,2005-05-05,2010-03-23,0.3397,5.2247,3.0,6.0329,5,4,48730000,3,MA,0,0,1,0,0,software,1,0,0,0,0,0,0,0,0,0,c:37929,1,0,1,1,1,0,3.0,1,1
824,CA,34.054935,-118.244476,90032,c:47115,Los Angeles,Los Angeles CA 90032,Giiv,0,2009-01-01,8/1/2012,2009-01-01,2010-06-01,0.0,1.4137,1.4137,1.4137,1,2,3350000,1,CA,1,0,0,0,0,messaging,0,0,0,0,0,0,0,0,0,1,c:47115,0,1,1,0,0,0,2.5,1,0
49,CA,34.141876,-118.132377,91203,c:11817,Glendale,,MyShape,0,2003-09-01,4/1/2013,2007-07-17,2010-11-10,3.8767,7.1973,2.6658,7.1973,3,4,28000000,2,CA,1,0,0,0,0,ecommerce,0,0,0,0,0,0,1,0,0,0,c:11817,1,0,0,1,1,0,3.0,1,0
1088,TX,30.2702703,-97.742204,78701,c:81476,Austin,,BlackLocus,1,2010-01-01,,2011-07-01,2011-07-01,1.4959,1.4959,2.0849,2.0849,5,1,2500000,1,TX,0,0,0,1,0,analytics,0,0,0,0,0,0,0,0,0,1,c:81476,0,0,1,0,0,0,2.0,1,1
156,IL,41.889474,-87.628912,60610,c:155,Chicago,,FeedBurner,1,2004-02-01,,2004-06-01,2005-04-01,0.3315,1.1644,2.0795,9.3507,16,2,8000000,4,IL,0,0,0,0,1,web,0,1,0,0,0,0,0,0,0,0,c:155,0,0,1,1,0,0,4.0,1,1
1152,NY,40.73901,-73.997259,10011,c:9822,New York,New York NY 10011,DailyBurn,1,2007-10-01,,2008-05-01,2009-05-26,0.5836,1.6521,0.6329,4.263,6,2,540000,2,NY,0,1,0,0,0,web,0,1,0,0,0,0,0,0,0,0,c:9822,0,1,0,0,0,0,2.5,1,1
1134,CA,37.780716,-122.39391299999998,94107,c:93,San Francisco,,CastTV,1,2006-01-01,,2006-01-01,2007-04-01,0.0,1.2466,1.0,5.4384,4,2,3100000,4,CA,1,0,0,0,0,games_video,0,0,0,0,0,1,0,0,0,0,c:93,0,1,1,0,0,0,2.0,1,1
650,NY,40.750519,-73.993494,10001,c:37635,New York,New York NY 10001,Venmo,1,2009-04-04,,2010-05-07,2011-08-01,1.0904,2.326,2.8301,4.6904,8,2,1200000,2,NY,0,1,0,0,0,mobile,0,0,1,0,0,0,0,0,0,0,c:37635,0,1,1,0,0,0,6.0,1,1
199,NY,40.752516,-73.973072,10017,c:1627,New York,,WeShow,0,2007-06-01,12/2/2008,2007-06-01,2007-06-01,0.0,0.0,0.1096,0.1096,2,1,5000000,1,NY,0,1,0,0,0,games_video,0,0,0,0,0,1,0,0,0,0,c:1627,0,0,1,0,0,0,2.0,0,0
151,CA,37.785655,-122.398393,CA 94105,c:15294,San Francisco,,SenSage,1,2004-08-18,,2005-04-18,2012-01-01,0.6658,7.3753,2.3726,2.3726,6,6,37079000,1,CA,1,0,0,0,0,security,0,0,0,0,0,0,0,0,0,1,c:15294,1,0,0,0,1,1,3.8,1,1
474,MA,42.528635,-71.27802199999998,1821,c:27163,Billerica,,Luminus Devices,1,2002-01-01,,2006-05-01,2013-03-01,4.3315,11.1699,8.7041,8.7068,3,4,135826373,2,MA,0,0,1,0,0,other,0,0,0,0,0,0,0,0,0,1,c:27163,0,0,0,1,0,1,4.3333,1,1
585,CA,32.88945,-117.166929,92121,c:3267,San Diego,,Tapioca Mobile,0,2008-01-01,7/9/2012,2007-09-01,2008-03-25,-0.3342,0.2301,,,5,2,5000000,0,CA,1,0,0,0,0,mobile,0,0,1,0,0,0,0,0,0,0,c:3267,1,1,0,0,0,0,1.0,1,0
1067,NY,40.728425,-73.999882,10012,c:77139,New York,New York NY 10012,BestVendor,1,2011-01-01,,2011-03-18,2012-02-01,0.2082,1.0849,0.1616,2.6521,3,4,4200000,3,NY,0,1,0,0,0,software,1,0,0,0,0,0,0,0,0,0,c:77139,0,1,1,0,0,0,3.0,1,1
1130,WA,47.59896810000001,-122.33290359999998,98104,c:9085,Seattle,,Local Marketers,0,2005-01-01,2/3/2011,2008-07-31,2008-07-31,3.5808,3.5808,-1.0027,7.5918,3,1,4100000,3,WA,0,0,0,0,1,web,0,1,0,0,0,0,0,0,0,0,c:9085,1,0,0,0,0,0,1.0,1,0
1080,CA,37.222698,-121.979887,95030,c:80259,Los Gatos,Los Gatos CA 95030,Eyeona,0,2011-01-01,11/1/2012,2011-10-10,2011-10-10,0.7726,0.7726,0.3123,1.1479,3,1,2000000,2,CA,1,0,0,0,0,web,0,1,0,0,0,0,0,0,0,0,c:80259,0,0,0,0,0,0,1.0,0,0
464,CO,39.937989,-105.058729,80021,c:26806,Broomfield,Broomfield CO 80021,ColdSpark,1,2001-01-01,,2006-01-01,2006-01-01,5.0027,5.0027,5.4986,5.4986,3,1,6500000,1,CO,0,0,0,0,1,software,1,0,0,0,0,0,0,0,0,0,c:26806,1,0,0,0,0,0,1.0,1,1
300,CA,37.561111,-122.27048700000002,94404,c:18080,Foster City,,Etology,0,2005-06-01,12/25/2011,2006-11-13,2006-11-13,1.4521,1.4521,,,0,1,4000000,0,CA,1,0,0,0,0,web,0,1,0,0,0,0,0,0,0,0,c:18080,0,0,1,0,0,0,3.0,0,0
914,CA,37.391642,-122.09393500000002,94040,c:55592,Mountain View,Mountain View CA 94040,Wander (f. YongoPal),0,2010-01-01,7/1/2013,2010-04-01,2011-01-01,0.2466,1.0,1.1616,1.1616,3,5,185000,1,CA,1,0,0,0,0,mobile,0,0,1,0,0,0,0,0,0,0,c:55592,1,1,0,0,0,0,2.0,1,0
1048,OR,45.520247,-122.674195,97214,c:74928,Portland,Portland OR 97214,CrowdCompass,1,2009-04-01,,2011-12-11,2011-12-11,2.6959,2.6959,3.2192,4.0027,5,1,1300000,2,OR,0,0,0,0,1,mobile,0,0,1,0,0,0,0,0,0,0,c:74928,0,0,1,0,0,0,1.0,0,1
476,NY,40.74632,-73.982607,10011,c:2731,New York,,Right Media,1,2003-01-01,,2006-10-17,2006-10-17,3.7945,3.7945,,,21,1,45000000,0,NY,0,1,0,0,0,advertising,0,0,0,0,1,0,0,0,0,0,c:2731,0,0,0,1,0,0,1.0,0,1
583,MA,42.360253,-71.058291,2111,c:32383,Boston,Boston MA 2111,Goby,1,2008-07-01,,2010-10-20,2010-10-20,2.3041,2.3041,-0.3342,2.3589,4,1,2500000,3,MA,0,0,1,0,0,search,0,0,0,0,0,0,0,0,0,1,c:32383,0,0,1,0,0,0,2.0,1,1
112,TX,30.280148,-97.749908,78701,c:1419,Austin,Austin TX 78701,FiveRuns,1,2005-02-01,,2005-09-01,2007-10-28,0.5808,2.737,1.9151,4.6603,11,2,9200000,2,TX,0,0,0,1,0,web,0,1,0,0,0,0,0,0,0,0,c:1419,0,0,1,1,0,0,1.0,1,1
886,CA,34.066697,-118.383367,90211,c:53304,Beverly Hills,Beverly Hills CA 90211,GeekStatus,0,2010-08-01,6/1/2013,2009-02-10,2010-06-12,-1.4712,-0.1369999999999999,,,0,4,435953,0,CA,1,0,0,0,0,web,0,1,0,0,0,0,0,0,0,0,c:53304,0,1,0,0,0,0,1.0,0,0
314,CT,54.983201,-1.574631,6103,c:1899,Hartford,Hartford CT 6103,MOLI,0,2008-01-01,5/24/2010,2007-01-01,2008-01-01,-1.0,0.0,-1.5863,0.863,9,2,55600000,2,CT,0,0,0,0,1,network_hosting,0,0,0,0,0,0,0,0,0,1,c:1899,0,0,1,1,0,0,2.0,0,0
513,CO,39.616435,-104.879925,80111,c:29168,Greenwood Village,Greenwood Village CO 80111,TrenStar,1,2001-01-01,,2007-04-06,2007-04-06,6.263,6.263,1.0,1.0,2,1,10000000,1,CO,0,0,0,0,1,software,1,0,0,0,0,0,0,0,0,0,c:29168,1,0,0,0,0,0,1.0,0,1
963,WA,47.603832,-122.330062,98109,c:60352,Seattle,Seattle WA 98109,World Blender,0,2010-01-01,2/1/2011,2010-11-01,2010-11-01,0.8329,0.8329,0.6658,0.6658,3,1,12000,1,WA,0,0,0,0,1,games_video,0,0,0,0,0,1,0,0,0,0,c:60352,0,1,0,0,0,0,1.0,1,0
687,MD,38.988766,-76.940952,20742,c:39507,College Park,College Park MD 20742,Zymetis,0,2006-01-01,12/7/2012,2010-01-11,2010-01-31,4.0301,4.0849,,,3,2,2257464,0,MD,0,0,0,0,1,biotech,0,0,0,0,0,0,0,1,0,0,c:39507,1,0,0,0,0,0,1.0,0,0
1093,NY,40.729839,-73.991781,10003,c:82843,New York,New York NY 10003,Dispatch,1,2011-05-01,,2011-07-01,2011-11-10,0.1671,0.5288,0.1671,2.4438,4,2,983000,2,NY,0,1,0,0,0,messaging,0,0,0,0,0,0,0,0,0,1,c:82843,0,1,0,0,0,0,6.0,1,1
381,CA,34.054935,-118.244476,90015,c:23052,Los Angeles,Los Angeles CA 90015,HauteLook,1,2007-12-01,,2009-05-12,2010-06-03,1.4466,2.5068,2.5014,3.6411,15,2,41000000,2,CA,1,0,0,0,0,fashion,0,0,0,0,0,0,0,0,0,1,c:23052,0,0,0,1,1,0,1.5,1,1
34,TX,32.969251,-96.823778,75001,c:10969,Addison,,Semantra,0,2003-01-01,4/25/2010,2006-09-01,2008-07-22,3.6685,5.5589,,,0,3,9100000,0,TX,0,0,0,1,0,software,1,0,0,0,0,0,0,0,0,0,c:10969,1,0,0,1,1,0,1.0,0,0
972,CA,38.223032,-122.261642,94558,c:6150,Napa,,Inertia Beverage Group,0,2004-10-22,1/16/2013,2007-04-02,2012-01-01,2.4438,7.1973,-2.0575,6.8767,6,3,25500100,3,CA,1,0,0,0,0,software,1,0,0,0,0,0,0,0,0,0,c:6150,1,0,0,1,0,0,2.5,1,0
808,CA,37.779281,-122.419236,94103,c:46129,San Francisco,San Francisco CA 94103,Sponge,1,2010-01-01,,2010-04-19,2010-04-19,0.2959,0.2959,1.5863,1.6658,3,1,400000,2,CA,1,0,0,0,0,web,0,1,0,0,0,0,0,0,0,0,c:46129,0,1,0,0,0,0,1.0,1,1
643,NY,40.730646,-73.986614,10119,c:36936,New York,New York NY 10119,Genesis Networks,1,2002-01-01,,2006-09-26,2010-05-06,4.737,8.3479,,,4,10,22165091,0,NY,0,1,0,0,0,network_hosting,0,0,0,0,0,0,0,0,0,1,c:36936,1,0,0,1,0,0,2.0,1,1
272,CA,37.763652,-122.421778,94110,c:1760,San Francisco,,Mogad,1,2007-06-01,,2007-08-01,2007-08-01,0.1671,0.1671,0.6712,3.3151,4,1,500000,2,CA,1,0,0,0,0,network_hosting,0,0,0,0,0,0,0,0,0,1,c:1760,0,0,1,0,0,0,4.0,1,1
